{
"type": "FeatureCollection",
"name": "Pyapon_DT_Village",
"crs": { "type": "name", "properties": { "name": "urn:ogc:def:crs:OGC:1.3:CRS84" } },
"features": [
{ "type": "Feature", "properties": { "ST": "Ayeyarwady", "ST_PCODE": "MMR017", "DT": "Pyapon", "DT_PCODE": "MMR017D006", "TS": "Bogale", "TS_PCODE": "MMR017024", "VT": "(Kyun Nyo Gyi) Kyun Hteik", "VT_PCODE": "MMR017024040", "VILLAGE": "Da None Chaung", "VLG_PCODE": 150004.0, "VLG_MMR": "ဓနုံးချောင်း", "ALTVLG_ENG": null, "ALTVLG_MMR": null, "Longitude": 95.3604794, "Latitude": 16.1847161, "PCODE_V": 9.6 }, "geometry": { "type": "Point", "coordinates": [ 95.3604794, 16.1847161 ] } },
{ "type": "Feature", "properties": { "ST": "Ayeyarwady", "ST_PCODE": "MMR017", "DT": "Pyapon", "DT_PCODE": "MMR017D006", "TS": "Bogale", "TS_PCODE": "MMR017024", "VT": "(Kyun Nyo Gyi) Kyun Hteik", "VT_PCODE": "MMR017024040", "VILLAGE": "Hteik Chaung", "VLG_PCODE": 150011.0, "VLG_MMR": "ထိပ်ချောင်း", "ALTVLG_ENG": null, "ALTVLG_MMR": null, "Longitude": 95.31728363000001, "Latitude": 16.13915062, "PCODE_V": 9.6 }, "geometry": { "type": "Point", "coordinates": [ 95.31728363, 16.13915062 ] } },
{ "type": "Feature", "properties": { "ST": "Ayeyarwady", "ST_PCODE": "MMR017", "DT": "Pyapon", "DT_PCODE": "MMR017D006", "TS": "Bogale", "TS_PCODE": "MMR017024", "VT": "(Kyun Nyo Gyi) Kyun Hteik", "VT_PCODE": "MMR017024040", "VILLAGE": "Kun Thee Chaung", "VLG_PCODE": 150007.0, "VLG_MMR": "ကွမ်းသီးချောင်း", "ALTVLG_ENG": null, "ALTVLG_MMR": null, "Longitude": 95.3453336, "Latitude": 16.1464104, "PCODE_V": 9.6 }, "geometry": { "type": "Point", "coordinates": [ 95.3453336, 16.1464104 ] } },
{ "type": "Feature", "properties": { "ST": "Ayeyarwady", "ST_PCODE": "MMR017", "DT": "Pyapon", "DT_PCODE": "MMR017D006", "TS": "Bogale", "TS_PCODE": "MMR017024", "VT": "(Kyun Nyo Gyi) Kyun Hteik", "VT_PCODE": "MMR017024040", "VILLAGE": "Kyar Chaung", "VLG_PCODE": 150009.0, "VLG_MMR": "ကျားချောင်း", "ALTVLG_ENG": null, "ALTVLG_MMR": null, "Longitude": 95.33157349, "Latitude": 16.18874931, "PCODE_V": 9.6 }, "geometry": { "type": "Point", "coordinates": [ 95.33157349, 16.18874931 ] } },
{ "type": "Feature", "properties": { "ST": "Ayeyarwady", "ST_PCODE": "MMR017", "DT": "Pyapon", "DT_PCODE": "MMR017D006", "TS": "Bogale", "TS_PCODE": "MMR017024", "VT": "(Kyun Nyo Gyi) Kyun Hteik", "VT_PCODE": "MMR017024040", "VILLAGE": "Kyet Taung Chaung Sar Hpyu Su", "VLG_PCODE": 150002.0, "VLG_MMR": "ကြက်တောင်ချောင်းစာဖြူစု", "ALTVLG_ENG": null, "ALTVLG_MMR": null, "Longitude": 95.3626587, "Latitude": 16.1933954, "PCODE_V": 9.6 }, "geometry": { "type": "Point", "coordinates": [ 95.3626587, 16.1933954 ] } },
{ "type": "Feature", "properties": { "ST": "Ayeyarwady", "ST_PCODE": "MMR017", "DT": "Pyapon", "DT_PCODE": "MMR017D006", "TS": "Bogale", "TS_PCODE": "MMR017024", "VT": "(Kyun Nyo Gyi) Kyun Hteik", "VT_PCODE": "MMR017024040", "VILLAGE": "Kyun Hteik", "VLG_PCODE": 150001.0, "VLG_MMR": "ကျွန်းထိပ်", "ALTVLG_ENG": null, "ALTVLG_MMR": null, "Longitude": 95.3622385, "Latitude": 16.197784, "PCODE_V": 9.6 }, "geometry": { "type": "Point", "coordinates": [ 95.3622385, 16.197784 ] } },
{ "type": "Feature", "properties": { "ST": "Ayeyarwady", "ST_PCODE": "MMR017", "DT": "Pyapon", "DT_PCODE": "MMR017D006", "TS": "Bogale", "TS_PCODE": "MMR017024", "VT": "(Kyun Nyo Gyi) Kyun Hteik", "VT_PCODE": "MMR017024040", "VILLAGE": "La Tar Chaung", "VLG_PCODE": 150010.0, "VLG_MMR": "လတာချောင်း", "ALTVLG_ENG": null, "ALTVLG_MMR": null, "Longitude": 95.30738068, "Latitude": 16.1532402, "PCODE_V": 9.6 }, "geometry": { "type": "Point", "coordinates": [ 95.30738068, 16.1532402 ] } },
{ "type": "Feature", "properties": { "ST": "Ayeyarwady", "ST_PCODE": "MMR017", "DT": "Pyapon", "DT_PCODE": "MMR017D006", "TS": "Bogale", "TS_PCODE": "MMR017024", "VT": "(Kyun Nyo Gyi) Kyun Hteik", "VT_PCODE": "MMR017024040", "VILLAGE": "Nat Mauk", "VLG_PCODE": 150005.0, "VLG_MMR": "နတ်မောက်", "ALTVLG_ENG": null, "ALTVLG_MMR": null, "Longitude": 95.34343719, "Latitude": 16.1531105, "PCODE_V": 9.6 }, "geometry": { "type": "Point", "coordinates": [ 95.34343719, 16.1531105 ] } },
{ "type": "Feature", "properties": { "ST": "Ayeyarwady", "ST_PCODE": "MMR017", "DT": "Pyapon", "DT_PCODE": "MMR017D006", "TS": "Bogale", "TS_PCODE": "MMR017024", "VT": "(Kyun Nyo Gyi) Kyun Hteik", "VT_PCODE": "MMR017024040", "VILLAGE": "Nga Khu Chaung", "VLG_PCODE": 150012.0, "VLG_MMR": "ငခူချောင်း", "ALTVLG_ENG": null, "ALTVLG_MMR": null, "Longitude": 95.31437683, "Latitude": 16.17123985, "PCODE_V": 9.6 }, "geometry": { "type": "Point", "coordinates": [ 95.31437683, 16.17123985 ] } },
{ "type": "Feature", "properties": { "ST": "Ayeyarwady", "ST_PCODE": "MMR017", "DT": "Pyapon", "DT_PCODE": "MMR017D006", "TS": "Bogale", "TS_PCODE": "MMR017024", "VT": "(Kyun Nyo Gyi) Kyun Hteik", "VT_PCODE": "MMR017024040", "VILLAGE": "Pyin Ma Kone", "VLG_PCODE": 150006.0, "VLG_MMR": "ပျဉ်းမကုန်း", "ALTVLG_ENG": null, "ALTVLG_MMR": null, "Longitude": 95.34973145, "Latitude": 16.17398071, "PCODE_V": 9.6 }, "geometry": { "type": "Point", "coordinates": [ 95.34973145, 16.17398071 ] } },
{ "type": "Feature", "properties": { "ST": "Ayeyarwady", "ST_PCODE": "MMR017", "DT": "Pyapon", "DT_PCODE": "MMR017D006", "TS": "Bogale", "TS_PCODE": "MMR017024", "VT": "(Kyun Nyo Gyi) Kyun Hteik", "VT_PCODE": "MMR017024040", "VILLAGE": "Tone Le", "VLG_PCODE": 150003.0, "VLG_MMR": "တုံးလဲ", "ALTVLG_ENG": null, "ALTVLG_MMR": null, "Longitude": 95.35477538000001, "Latitude": 16.20360864, "PCODE_V": 9.6 }, "geometry": { "type": "Point", "coordinates": [ 95.35477538, 16.20360864 ] } },
{ "type": "Feature", "properties": { "ST": "Ayeyarwady", "ST_PCODE": "MMR017", "DT": "Pyapon", "DT_PCODE": "MMR017D006", "TS": "Bogale", "TS_PCODE": "MMR017024", "VT": "(Kyun Nyo Gyi) Kyun Hteik", "VT_PCODE": "MMR017024040", "VILLAGE": "Ywar Thar Yar", "VLG_PCODE": 150008.0, "VLG_MMR": "ရွာသာယာ", "ALTVLG_ENG": null, "ALTVLG_MMR": null, "Longitude": 95.3540044, "Latitude": 16.1626189, "PCODE_V": 9.6 }, "geometry": { "type": "Point", "coordinates": [ 95.3540044, 16.1626189 ] } },
{ "type": "Feature", "properties": { "ST": "Ayeyarwady", "ST_PCODE": "MMR017", "DT": "Pyapon", "DT_PCODE": "MMR017D006", "TS": "Bogale", "TS_PCODE": "MMR017024", "VT": "Auk Hle Seik", "VT_PCODE": "MMR017024011", "VILLAGE": "Hle Seik (East)", "VLG_PCODE": 150472.0, "VLG_MMR": "လှည်းဆိပ် (အရှေ့)", "ALTVLG_ENG": null, "ALTVLG_MMR": null, "Longitude": 95.54699707, "Latitude": 16.41229057, "PCODE_V": 9.6 }, "geometry": { "type": "Point", "coordinates": [ 95.54699707, 16.41229057 ] } },
{ "type": "Feature", "properties": { "ST": "Ayeyarwady", "ST_PCODE": "MMR017", "DT": "Pyapon", "DT_PCODE": "MMR017D006", "TS": "Bogale", "TS_PCODE": "MMR017024", "VT": "Auk Hle Seik", "VT_PCODE": "MMR017024011", "VILLAGE": "Hle Seik (West)", "VLG_PCODE": 150480.0, "VLG_MMR": "လှည်းဆိပ် (အနောက်)", "ALTVLG_ENG": null, "ALTVLG_MMR": null, "Longitude": 95.53201294, "Latitude": 16.3926506, "PCODE_V": 9.6 }, "geometry": { "type": "Point", "coordinates": [ 95.53201294, 16.3926506 ] } },
{ "type": "Feature", "properties": { "ST": "Ayeyarwady", "ST_PCODE": "MMR017", "DT": "Pyapon", "DT_PCODE": "MMR017D006", "TS": "Bogale", "TS_PCODE": "MMR017024", "VT": "Auk Hle Seik", "VT_PCODE": "MMR017024011", "VILLAGE": "Ku Lar Gyi Kwe", "VLG_PCODE": 150476.0, "VLG_MMR": "ကုလားကြီးကွဲ", "ALTVLG_ENG": null, "ALTVLG_MMR": null, "Longitude": 95.5478363, "Latitude": 16.39233017, "PCODE_V": 9.6 }, "geometry": { "type": "Point", "coordinates": [ 95.5478363, 16.39233017 ] } },
{ "type": "Feature", "properties": { "ST": "Ayeyarwady", "ST_PCODE": "MMR017", "DT": "Pyapon", "DT_PCODE": "MMR017D006", "TS": "Bogale", "TS_PCODE": "MMR017024", "VT": "Auk Hle Seik", "VT_PCODE": "MMR017024011", "VILLAGE": "Nwe Khway", "VLG_PCODE": 150475.0, "VLG_MMR": "နွယ်ခွေ", "ALTVLG_ENG": null, "ALTVLG_MMR": null, "Longitude": 95.54409, "Latitude": 16.40061, "PCODE_V": 9.6 }, "geometry": { "type": "Point", "coordinates": [ 95.54409, 16.40061 ] } },
{ "type": "Feature", "properties": { "ST": "Ayeyarwady", "ST_PCODE": "MMR017", "DT": "Pyapon", "DT_PCODE": "MMR017D006", "TS": "Bogale", "TS_PCODE": "MMR017024", "VT": "Auk Hle Seik", "VT_PCODE": "MMR017024011", "VILLAGE": "Thin Pan Chaung", "VLG_PCODE": 150478.0, "VLG_MMR": "သင်ပန်းချောင်း", "ALTVLG_ENG": null, "ALTVLG_MMR": null, "Longitude": 95.55233, "Latitude": 16.40069, "PCODE_V": 9.6 }, "geometry": { "type": "Point", "coordinates": [ 95.55233, 16.40069 ] } },
{ "type": "Feature", "properties": { "ST": "Ayeyarwady", "ST_PCODE": "MMR017", "DT": "Pyapon", "DT_PCODE": "MMR017D006", "TS": "Bogale", "TS_PCODE": "MMR017024", "VT": "Auk Hle Seik", "VT_PCODE": "MMR017024011", "VILLAGE": "Thone Ein Tan", "VLG_PCODE": 150474.0, "VLG_MMR": "သုံးအိမ်တန်း", "ALTVLG_ENG": null, "ALTVLG_MMR": null, "Longitude": 95.54400635, "Latitude": 16.42012978, "PCODE_V": 9.6 }, "geometry": { "type": "Point", "coordinates": [ 95.54400635, 16.42012978 ] } },
{ "type": "Feature", "properties": { "ST": "Ayeyarwady", "ST_PCODE": "MMR017", "DT": "Pyapon", "DT_PCODE": "MMR017D006", "TS": "Bogale", "TS_PCODE": "MMR017024", "VT": "Aye", "VT_PCODE": "MMR017024038", "VILLAGE": "Aye", "VLG_PCODE": 150589.0, "VLG_MMR": "အေး", "ALTVLG_ENG": null, "ALTVLG_MMR": null, "Longitude": 95.33695221000001, "Latitude": 16.24224091, "PCODE_V": 9.6 }, "geometry": { "type": "Point", "coordinates": [ 95.33695221, 16.24224091 ] } },
{ "type": "Feature", "properties": { "ST": "Ayeyarwady", "ST_PCODE": "MMR017", "DT": "Pyapon", "DT_PCODE": "MMR017D006", "TS": "Bogale", "TS_PCODE": "MMR017024", "VT": "Aye", "VT_PCODE": "MMR017024038", "VILLAGE": "Hle Seik", "VLG_PCODE": 150591.0, "VLG_MMR": "လှဲဆိပ်", "ALTVLG_ENG": null, "ALTVLG_MMR": null, "Longitude": 95.3352773, "Latitude": 16.2719394, "PCODE_V": 9.6 }, "geometry": { "type": "Point", "coordinates": [ 95.3352773, 16.2719394 ] } },
{ "type": "Feature", "properties": { "ST": "Ayeyarwady", "ST_PCODE": "MMR017", "DT": "Pyapon", "DT_PCODE": "MMR017D006", "TS": "Bogale", "TS_PCODE": "MMR017024", "VT": "Aye", "VT_PCODE": "MMR017024038", "VILLAGE": "Ka Nyin Chaung (North)", "VLG_PCODE": 150590.0, "VLG_MMR": "ကညင်ချောင်း (မြောက်)", "ALTVLG_ENG": null, "ALTVLG_MMR": null, "Longitude": 95.33997803, "Latitude": 16.27404117, "PCODE_V": 9.6 }, "geometry": { "type": "Point", "coordinates": [ 95.33997803, 16.27404117 ] } },
{ "type": "Feature", "properties": { "ST": "Ayeyarwady", "ST_PCODE": "MMR017", "DT": "Pyapon", "DT_PCODE": "MMR017D006", "TS": "Bogale", "TS_PCODE": "MMR017024", "VT": "Aye", "VT_PCODE": "MMR017024038", "VILLAGE": "Ka Nyin Chaung (South)", "VLG_PCODE": 150594.0, "VLG_MMR": "ကညင်ချောင်း (တောင်)", "ALTVLG_ENG": null, "ALTVLG_MMR": null, "Longitude": 95.34277185000001, "Latitude": 16.26887227, "PCODE_V": 9.6 }, "geometry": { "type": "Point", "coordinates": [ 95.34277185, 16.26887227 ] } },
{ "type": "Feature", "properties": { "ST": "Ayeyarwady", "ST_PCODE": "MMR017", "DT": "Pyapon", "DT_PCODE": "MMR017D006", "TS": "Bogale", "TS_PCODE": "MMR017024", "VT": "Aye", "VT_PCODE": "MMR017024038", "VILLAGE": "Kun Thee Chaung", "VLG_PCODE": 150595.0, "VLG_MMR": "ကွမ်းသီးချောင်း", "ALTVLG_ENG": null, "ALTVLG_MMR": null, "Longitude": 95.3317747, "Latitude": 16.2569299, "PCODE_V": 9.6 }, "geometry": { "type": "Point", "coordinates": [ 95.3317747, 16.2569299 ] } },
{ "type": "Feature", "properties": { "ST": "Ayeyarwady", "ST_PCODE": "MMR017", "DT": "Pyapon", "DT_PCODE": "MMR017D006", "TS": "Bogale", "TS_PCODE": "MMR017024", "VT": "Aye", "VT_PCODE": "MMR017024038", "VILLAGE": "Kyee Pin Su", "VLG_PCODE": 150592.0, "VLG_MMR": "ကျီးပင်စု", "ALTVLG_ENG": null, "ALTVLG_MMR": null, "Longitude": 95.3218461, "Latitude": 16.2596722, "PCODE_V": 9.6 }, "geometry": { "type": "Point", "coordinates": [ 95.3218461, 16.2596722 ] } },
{ "type": "Feature", "properties": { "ST": "Ayeyarwady", "ST_PCODE": "MMR017", "DT": "Pyapon", "DT_PCODE": "MMR017D006", "TS": "Bogale", "TS_PCODE": "MMR017024", "VT": "Aye", "VT_PCODE": "MMR017024038", "VILLAGE": "Ma Gyi Chaung", "VLG_PCODE": 150593.0, "VLG_MMR": "မကျီးချောင်း", "ALTVLG_ENG": null, "ALTVLG_MMR": null, "Longitude": 95.3243381, "Latitude": 16.2360373, "PCODE_V": 9.6 }, "geometry": { "type": "Point", "coordinates": [ 95.3243381, 16.2360373 ] } },
{ "type": "Feature", "properties": { "ST": "Ayeyarwady", "ST_PCODE": "MMR017", "DT": "Pyapon", "DT_PCODE": "MMR017D006", "TS": "Bogale", "TS_PCODE": "MMR017024", "VT": "Aye", "VT_PCODE": "MMR017024038", "VILLAGE": "Pay Chaung", "VLG_PCODE": 150596.0, "VLG_MMR": "​ပေချောင်း", "ALTVLG_ENG": null, "ALTVLG_MMR": null, "Longitude": 95.34023285000001, "Latitude": 16.24751091, "PCODE_V": 9.6 }, "geometry": { "type": "Point", "coordinates": [ 95.34023285, 16.24751091 ] } },
{ "type": "Feature", "properties": { "ST": "Ayeyarwady", "ST_PCODE": "MMR017", "DT": "Pyapon", "DT_PCODE": "MMR017D006", "TS": "Bogale", "TS_PCODE": "MMR017024", "VT": "Aye Yar", "VT_PCODE": "MMR017024070", "VILLAGE": "Auk Ma Gyi Chaung", "VLG_PCODE": 222716.0, "VLG_MMR": "အောက်မကျီးချောင်း", "ALTVLG_ENG": null, "ALTVLG_MMR": null, "Longitude": 95.3338822, "Latitude": 16.2385662, "PCODE_V": 9.6 }, "geometry": { "type": "Point", "coordinates": [ 95.3338822, 16.2385662 ] } },
{ "type": "Feature", "properties": { "ST": "Ayeyarwady", "ST_PCODE": "MMR017", "DT": "Pyapon", "DT_PCODE": "MMR017D006", "TS": "Bogale", "TS_PCODE": "MMR017024", "VT": "Aye Yar", "VT_PCODE": "MMR017024070", "VILLAGE": "Aye Yar", "VLG_PCODE": 150602.0, "VLG_MMR": "အေရာ", "ALTVLG_ENG": null, "ALTVLG_MMR": null, "Longitude": 95.11270142, "Latitude": 15.80893993, "PCODE_V": 9.6 }, "geometry": { "type": "Point", "coordinates": [ 95.11270142, 15.80893993 ] } },
{ "type": "Feature", "properties": { "ST": "Ayeyarwady", "ST_PCODE": "MMR017", "DT": "Pyapon", "DT_PCODE": "MMR017D006", "TS": "Bogale", "TS_PCODE": "MMR017024", "VT": "Aye Yar", "VT_PCODE": "MMR017024070", "VILLAGE": "Ohn Pin Su", "VLG_PCODE": 150605.0, "VLG_MMR": "အုန်းပင်စု", "ALTVLG_ENG": null, "ALTVLG_MMR": null, "Longitude": 95.12940979, "Latitude": 15.80838966, "PCODE_V": 9.6 }, "geometry": { "type": "Point", "coordinates": [ 95.12940979, 15.80838966 ] } },
{ "type": "Feature", "properties": { "ST": "Ayeyarwady", "ST_PCODE": "MMR017", "DT": "Pyapon", "DT_PCODE": "MMR017D006", "TS": "Bogale", "TS_PCODE": "MMR017024", "VT": "Aye Yar", "VT_PCODE": "MMR017024070", "VILLAGE": "Tauk Tar Kone", "VLG_PCODE": 150603.0, "VLG_MMR": "တောက်တာကုန်း", "ALTVLG_ENG": null, "ALTVLG_MMR": null, "Longitude": 95.11688995, "Latitude": 15.80708027, "PCODE_V": 9.6 }, "geometry": { "type": "Point", "coordinates": [ 95.11688995, 15.80708027 ] } },
{ "type": "Feature", "properties": { "ST": "Ayeyarwady", "ST_PCODE": "MMR017", "DT": "Pyapon", "DT_PCODE": "MMR017D006", "TS": "Bogale", "TS_PCODE": "MMR017024", "VT": "Aye Yar", "VT_PCODE": "MMR017024070", "VILLAGE": "Taung Yar Gyi", "VLG_PCODE": 150607.0, "VLG_MMR": "တောင်ယာကြီး", "ALTVLG_ENG": null, "ALTVLG_MMR": null, "Longitude": 95.14135742000001, "Latitude": 15.8144598, "PCODE_V": 9.6 }, "geometry": { "type": "Point", "coordinates": [ 95.14135742, 15.8144598 ] } },
{ "type": "Feature", "properties": { "ST": "Ayeyarwady", "ST_PCODE": "MMR017", "DT": "Pyapon", "DT_PCODE": "MMR017D006", "TS": "Bogale", "TS_PCODE": "MMR017024", "VT": "Aye Yar", "VT_PCODE": "MMR017024070", "VILLAGE": "Tha Bawt Aing", "VLG_PCODE": 150606.0, "VLG_MMR": "သဘော့အိုင်", "ALTVLG_ENG": null, "ALTVLG_MMR": null, "Longitude": 95.12709808, "Latitude": 15.79973984, "PCODE_V": 9.6 }, "geometry": { "type": "Point", "coordinates": [ 95.12709808, 15.79973984 ] } },
{ "type": "Feature", "properties": { "ST": "Ayeyarwady", "ST_PCODE": "MMR017", "DT": "Pyapon", "DT_PCODE": "MMR017D006", "TS": "Bogale", "TS_PCODE": "MMR017024", "VT": "Aye Yar", "VT_PCODE": "MMR017024070", "VILLAGE": "Tha Ma Seik Ta", "VLG_PCODE": 150610.0, "VLG_MMR": "သမစိတ္တ", "ALTVLG_ENG": null, "ALTVLG_MMR": null, "Longitude": 95.148369, "Latitude": 15.79868, "PCODE_V": 9.6 }, "geometry": { "type": "Point", "coordinates": [ 95.148369, 15.79868 ] } },
{ "type": "Feature", "properties": { "ST": "Ayeyarwady", "ST_PCODE": "MMR017", "DT": "Pyapon", "DT_PCODE": "MMR017D006", "TS": "Bogale", "TS_PCODE": "MMR017024", "VT": "Aye Yar", "VT_PCODE": "MMR017024070", "VILLAGE": "Tha Pyay Yoe", "VLG_PCODE": 150604.0, "VLG_MMR": "သပြေရိုး", "ALTVLG_ENG": null, "ALTVLG_MMR": null, "Longitude": 95.16471863, "Latitude": 15.7958498, "PCODE_V": 9.6 }, "geometry": { "type": "Point", "coordinates": [ 95.16471863, 15.7958498 ] } },
{ "type": "Feature", "properties": { "ST": "Ayeyarwady", "ST_PCODE": "MMR017", "DT": "Pyapon", "DT_PCODE": "MMR017D006", "TS": "Bogale", "TS_PCODE": "MMR017024", "VT": "Aye Yar", "VT_PCODE": "MMR017024070", "VILLAGE": "War Taw Kone", "VLG_PCODE": 150611.0, "VLG_MMR": "ဝါးတောကုန်း", "ALTVLG_ENG": null, "ALTVLG_MMR": null, "Longitude": 95.13970947, "Latitude": 15.78868961, "PCODE_V": 9.6 }, "geometry": { "type": "Point", "coordinates": [ 95.13970947, 15.78868961 ] } },
{ "type": "Feature", "properties": { "ST": "Ayeyarwady", "ST_PCODE": "MMR017", "DT": "Pyapon", "DT_PCODE": "MMR017D006", "TS": "Bogale", "TS_PCODE": "MMR017024", "VT": "Aye Yar", "VT_PCODE": "MMR017024070", "VILLAGE": "Yae Kyaw Gyi", "VLG_PCODE": 150608.0, "VLG_MMR": "ရေကျော်ကြီး", "ALTVLG_ENG": "Yae Kyaw Gyi (West)", "ALTVLG_MMR": "ရေကျော်ကြီး (အနောက်)", "Longitude": 95.10933685000001, "Latitude": 15.84593964, "PCODE_V": 9.6 }, "geometry": { "type": "Point", "coordinates": [ 95.10933685, 15.84593964 ] } },
{ "type": "Feature", "properties": { "ST": "Ayeyarwady", "ST_PCODE": "MMR017", "DT": "Pyapon", "DT_PCODE": "MMR017D006", "TS": "Bogale", "TS_PCODE": "MMR017024", "VT": "Aye Yar", "VT_PCODE": "MMR017024070", "VILLAGE": "Ywar Thar Yar", "VLG_PCODE": 150609.0, "VLG_MMR": "ရွာသာယာ", "ALTVLG_ENG": null, "ALTVLG_MMR": null, "Longitude": 95.11791229000001, "Latitude": 15.8364296, "PCODE_V": 9.6 }, "geometry": { "type": "Point", "coordinates": [ 95.11791229, 15.8364296 ] } },
{ "type": "Feature", "properties": { "ST": "Ayeyarwady", "ST_PCODE": "MMR017", "DT": "Pyapon", "DT_PCODE": "MMR017D006", "TS": "Bogale", "TS_PCODE": "MMR017024", "VT": "Boe Di Kwe", "VT_PCODE": "MMR017024045", "VILLAGE": "Boe Di Kwe Ywar Ma", "VLG_PCODE": 150864.0, "VLG_MMR": "ဘိုးဒီကွဲရွာမ", "ALTVLG_ENG": null, "ALTVLG_MMR": null, "Longitude": 95.423853, "Latitude": 16.2638004, "PCODE_V": 9.6 }, "geometry": { "type": "Point", "coordinates": [ 95.423853, 16.2638004 ] } },
{ "type": "Feature", "properties": { "ST": "Ayeyarwady", "ST_PCODE": "MMR017", "DT": "Pyapon", "DT_PCODE": "MMR017D006", "TS": "Bogale", "TS_PCODE": "MMR017024", "VT": "Boe Di Kwe", "VT_PCODE": "MMR017024045", "VILLAGE": "Kun Thee Chaung", "VLG_PCODE": 150865.0, "VLG_MMR": "ကွမ်းသီးချောင်း", "ALTVLG_ENG": null, "ALTVLG_MMR": null, "Longitude": 95.41831207, "Latitude": 16.27470016, "PCODE_V": 9.6 }, "geometry": { "type": "Point", "coordinates": [ 95.41831207, 16.27470016 ] } },
{ "type": "Feature", "properties": { "ST": "Ayeyarwady", "ST_PCODE": "MMR017", "DT": "Pyapon", "DT_PCODE": "MMR017D006", "TS": "Bogale", "TS_PCODE": "MMR017024", "VT": "Boe Di Kwe", "VT_PCODE": "MMR017024045", "VILLAGE": "Kun Yar Kan Lay", "VLG_PCODE": 150871.0, "VLG_MMR": "ကွမ်းယာကမ်းလေး", "ALTVLG_ENG": null, "ALTVLG_MMR": null, "Longitude": 95.4392711, "Latitude": 16.2506556, "PCODE_V": 9.6 }, "geometry": { "type": "Point", "coordinates": [ 95.4392711, 16.2506556 ] } },
{ "type": "Feature", "properties": { "ST": "Ayeyarwady", "ST_PCODE": "MMR017", "DT": "Pyapon", "DT_PCODE": "MMR017D006", "TS": "Bogale", "TS_PCODE": "MMR017024", "VT": "Boe Di Kwe", "VT_PCODE": "MMR017024045", "VILLAGE": "La Ba Ta Pin", "VLG_PCODE": 150870.0, "VLG_MMR": "လဘတပင်", "ALTVLG_ENG": null, "ALTVLG_MMR": null, "Longitude": 95.4328509, "Latitude": 16.2430816, "PCODE_V": 9.6 }, "geometry": { "type": "Point", "coordinates": [ 95.4328509, 16.2430816 ] } },
{ "type": "Feature", "properties": { "ST": "Ayeyarwady", "ST_PCODE": "MMR017", "DT": "Pyapon", "DT_PCODE": "MMR017D006", "TS": "Bogale", "TS_PCODE": "MMR017024", "VT": "Boe Di Kwe", "VT_PCODE": "MMR017024045", "VILLAGE": "Sar Hpyu Su", "VLG_PCODE": 150866.0, "VLG_MMR": "စာဖြူစု", "ALTVLG_ENG": null, "ALTVLG_MMR": null, "Longitude": 95.4273587, "Latitude": 16.2540866, "PCODE_V": 9.6 }, "geometry": { "type": "Point", "coordinates": [ 95.4273587, 16.2540866 ] } },
{ "type": "Feature", "properties": { "ST": "Ayeyarwady", "ST_PCODE": "MMR017", "DT": "Pyapon", "DT_PCODE": "MMR017D006", "TS": "Bogale", "TS_PCODE": "MMR017024", "VT": "Boe Di Kwe", "VT_PCODE": "MMR017024045", "VILLAGE": "Si Su", "VLG_PCODE": 150869.0, "VLG_MMR": "စီစု", "ALTVLG_ENG": null, "ALTVLG_MMR": null, "Longitude": 95.43885803000001, "Latitude": 16.27762032, "PCODE_V": 9.6 }, "geometry": { "type": "Point", "coordinates": [ 95.43885803, 16.27762032 ] } },
{ "type": "Feature", "properties": { "ST": "Ayeyarwady", "ST_PCODE": "MMR017", "DT": "Pyapon", "DT_PCODE": "MMR017D006", "TS": "Bogale", "TS_PCODE": "MMR017024", "VT": "Boe Di Kwe", "VT_PCODE": "MMR017024045", "VILLAGE": "Ywar Thit Su", "VLG_PCODE": 150868.0, "VLG_MMR": "ရွာသစ်စု", "ALTVLG_ENG": null, "ALTVLG_MMR": null, "Longitude": 95.44669342, "Latitude": 16.2730999, "PCODE_V": 9.6 }, "geometry": { "type": "Point", "coordinates": [ 95.44669342, 16.2730999 ] } },
{ "type": "Feature", "properties": { "ST": "Ayeyarwady", "ST_PCODE": "MMR017", "DT": "Pyapon", "DT_PCODE": "MMR017D006", "TS": "Bogale", "TS_PCODE": "MMR017024", "VT": "Boe Yaung", "VT_PCODE": "MMR017024028", "VILLAGE": "Ah Kha", "VLG_PCODE": 150913.0, "VLG_MMR": "အခ", "ALTVLG_ENG": null, "ALTVLG_MMR": null, "Longitude": 95.4491565, "Latitude": 16.3310195, "PCODE_V": 9.6 }, "geometry": { "type": "Point", "coordinates": [ 95.4491565, 16.3310195 ] } },
{ "type": "Feature", "properties": { "ST": "Ayeyarwady", "ST_PCODE": "MMR017", "DT": "Pyapon", "DT_PCODE": "MMR017D006", "TS": "Bogale", "TS_PCODE": "MMR017024", "VT": "Boe Yaung", "VT_PCODE": "MMR017024028", "VILLAGE": "Boe Yaung", "VLG_PCODE": 150910.0, "VLG_MMR": "ဘိုးရောင်", "ALTVLG_ENG": null, "ALTVLG_MMR": null, "Longitude": 95.453488, "Latitude": 16.3060149, "PCODE_V": 9.6 }, "geometry": { "type": "Point", "coordinates": [ 95.453488, 16.3060149 ] } },
{ "type": "Feature", "properties": { "ST": "Ayeyarwady", "ST_PCODE": "MMR017", "DT": "Pyapon", "DT_PCODE": "MMR017D006", "TS": "Bogale", "TS_PCODE": "MMR017024", "VT": "Boe Yaung", "VT_PCODE": "MMR017024028", "VILLAGE": "Chauk Ein Tan", "VLG_PCODE": 150914.0, "VLG_MMR": "ခြောက်အိမ်တန်း", "ALTVLG_ENG": null, "ALTVLG_MMR": null, "Longitude": 95.4372234, "Latitude": 16.3477735, "PCODE_V": 9.6 }, "geometry": { "type": "Point", "coordinates": [ 95.4372234, 16.3477735 ] } },
{ "type": "Feature", "properties": { "ST": "Ayeyarwady", "ST_PCODE": "MMR017", "DT": "Pyapon", "DT_PCODE": "MMR017D006", "TS": "Bogale", "TS_PCODE": "MMR017024", "VT": "Boe Yaung", "VT_PCODE": "MMR017024028", "VILLAGE": "Kyon Kha Yaing", "VLG_PCODE": 150915.0, "VLG_MMR": "ကျုံခရိုင်", "ALTVLG_ENG": null, "ALTVLG_MMR": null, "Longitude": 95.4534845, "Latitude": 16.3372597, "PCODE_V": 9.6 }, "geometry": { "type": "Point", "coordinates": [ 95.4534845, 16.3372597 ] } },
{ "type": "Feature", "properties": { "ST": "Ayeyarwady", "ST_PCODE": "MMR017", "DT": "Pyapon", "DT_PCODE": "MMR017D006", "TS": "Bogale", "TS_PCODE": "MMR017024", "VT": "Boe Yaung", "VT_PCODE": "MMR017024028", "VILLAGE": "Kyun Kyar Yae Kyaw", "VLG_PCODE": 150912.0, "VLG_MMR": "ကျွန်းကြားရေကျော်", "ALTVLG_ENG": null, "ALTVLG_MMR": null, "Longitude": 95.4407611, "Latitude": 16.3199496, "PCODE_V": 9.6 }, "geometry": { "type": "Point", "coordinates": [ 95.4407611, 16.3199496 ] } },
{ "type": "Feature", "properties": { "ST": "Ayeyarwady", "ST_PCODE": "MMR017", "DT": "Pyapon", "DT_PCODE": "MMR017D006", "TS": "Bogale", "TS_PCODE": "MMR017024", "VT": "Boe Yaung", "VT_PCODE": "MMR017024028", "VILLAGE": "Par Tu Chaung", "VLG_PCODE": 150911.0, "VLG_MMR": "ပါတူချောင်", "ALTVLG_ENG": null, "ALTVLG_MMR": null, "Longitude": 95.45353699, "Latitude": 16.32589912, "PCODE_V": 9.6 }, "geometry": { "type": "Point", "coordinates": [ 95.45353699, 16.32589912 ] } },
{ "type": "Feature", "properties": { "ST": "Ayeyarwady", "ST_PCODE": "MMR017", "DT": "Pyapon", "DT_PCODE": "MMR017D006", "TS": "Bogale", "TS_PCODE": "MMR017024", "VT": "Byu Sa Khan", "VT_PCODE": "MMR017024058", "VILLAGE": "Byu Sa Khan", "VLG_PCODE": 151058.0, "VLG_MMR": "ဗြူးစခန်း", "ALTVLG_ENG": null, "ALTVLG_MMR": null, "Longitude": 95.45719147, "Latitude": 16.10355949, "PCODE_V": 9.6 }, "geometry": { "type": "Point", "coordinates": [ 95.45719147, 16.10355949 ] } },
{ "type": "Feature", "properties": { "ST": "Ayeyarwady", "ST_PCODE": "MMR017", "DT": "Pyapon", "DT_PCODE": "MMR017D006", "TS": "Bogale", "TS_PCODE": "MMR017024", "VT": "Byu Sa Khan", "VT_PCODE": "MMR017024058", "VILLAGE": "Kyon Kaw", "VLG_PCODE": 151061.0, "VLG_MMR": "ကျုံကော်", "ALTVLG_ENG": null, "ALTVLG_MMR": null, "Longitude": 95.4452635, "Latitude": 16.0725096, "PCODE_V": 9.6 }, "geometry": { "type": "Point", "coordinates": [ 95.4452635, 16.0725096 ] } },
{ "type": "Feature", "properties": { "ST": "Ayeyarwady", "ST_PCODE": "MMR017", "DT": "Pyapon", "DT_PCODE": "MMR017D006", "TS": "Bogale", "TS_PCODE": "MMR017024", "VT": "Byu Sa Khan", "VT_PCODE": "MMR017024058", "VILLAGE": "Ma Ngeit Ka Lay", "VLG_PCODE": 151060.0, "VLG_MMR": "မငဲ့ကလေး", "ALTVLG_ENG": null, "ALTVLG_MMR": null, "Longitude": 95.44457245, "Latitude": 16.09589005, "PCODE_V": 9.6 }, "geometry": { "type": "Point", "coordinates": [ 95.44457245, 16.09589005 ] } },
{ "type": "Feature", "properties": { "ST": "Ayeyarwady", "ST_PCODE": "MMR017", "DT": "Pyapon", "DT_PCODE": "MMR017D006", "TS": "Bogale", "TS_PCODE": "MMR017024", "VT": "Byu Sa Khan", "VT_PCODE": "MMR017024058", "VILLAGE": "Sin Ku", "VLG_PCODE": 151059.0, "VLG_MMR": "ဆင်ကူး", "ALTVLG_ENG": null, "ALTVLG_MMR": null, "Longitude": 95.4277687, "Latitude": 16.0646813, "PCODE_V": 9.6 }, "geometry": { "type": "Point", "coordinates": [ 95.4277687, 16.0646813 ] } },
{ "type": "Feature", "properties": { "ST": "Ayeyarwady", "ST_PCODE": "MMR017", "DT": "Pyapon", "DT_PCODE": "MMR017D006", "TS": "Bogale", "TS_PCODE": "MMR017024", "VT": "Chaung Bye Gyi", "VT_PCODE": "MMR017024074", "VILLAGE": "Chaung Bye Gyi", "VLG_PCODE": 155508.0, "VLG_MMR": "ချောင်းဗြဲကြီး", "ALTVLG_ENG": null, "ALTVLG_MMR": null, "Longitude": 95.20986938, "Latitude": 15.89043045, "PCODE_V": 9.6 }, "geometry": { "type": "Point", "coordinates": [ 95.20986938, 15.89043045 ] } },
{ "type": "Feature", "properties": { "ST": "Ayeyarwady", "ST_PCODE": "MMR017", "DT": "Pyapon", "DT_PCODE": "MMR017D006", "TS": "Bogale", "TS_PCODE": "MMR017024", "VT": "Chaung Bye Gyi", "VT_PCODE": "MMR017024074", "VILLAGE": "Hlay Lone Kwe", "VLG_PCODE": 155505.0, "VLG_MMR": "လှေလုံးကွဲ", "ALTVLG_ENG": null, "ALTVLG_MMR": null, "Longitude": 95.14765167, "Latitude": 15.86283016, "PCODE_V": 9.6 }, "geometry": { "type": "Point", "coordinates": [ 95.14765167, 15.86283016 ] } },
{ "type": "Feature", "properties": { "ST": "Ayeyarwady", "ST_PCODE": "MMR017", "DT": "Pyapon", "DT_PCODE": "MMR017D006", "TS": "Bogale", "TS_PCODE": "MMR017024", "VT": "Chaung Bye Gyi", "VT_PCODE": "MMR017024074", "VILLAGE": "Kan Seik", "VLG_PCODE": 164119.0, "VLG_MMR": "ကံဆိပ်", "ALTVLG_ENG": null, "ALTVLG_MMR": null, "Longitude": 95.22409058, "Latitude": 15.89653015, "PCODE_V": 9.6 }, "geometry": { "type": "Point", "coordinates": [ 95.22409058, 15.89653015 ] } },
{ "type": "Feature", "properties": { "ST": "Ayeyarwady", "ST_PCODE": "MMR017", "DT": "Pyapon", "DT_PCODE": "MMR017D006", "TS": "Bogale", "TS_PCODE": "MMR017024", "VT": "Chaung Bye Gyi", "VT_PCODE": "MMR017024074", "VILLAGE": "Ma Pway Tan", "VLG_PCODE": 164121.0, "VLG_MMR": "မပွေးတန်း", "ALTVLG_ENG": null, "ALTVLG_MMR": null, "Longitude": 95.2382812, "Latitude": 15.94502698, "PCODE_V": 9.6 }, "geometry": { "type": "Point", "coordinates": [ 95.2382812, 15.94502698 ] } },
{ "type": "Feature", "properties": { "ST": "Ayeyarwady", "ST_PCODE": "MMR017", "DT": "Pyapon", "DT_PCODE": "MMR017D006", "TS": "Bogale", "TS_PCODE": "MMR017024", "VT": "Chaung Bye Gyi", "VT_PCODE": "MMR017024074", "VILLAGE": "Mee Laung Kwin", "VLG_PCODE": 164123.0, "VLG_MMR": "မီးလောင်ကွင်း", "ALTVLG_ENG": null, "ALTVLG_MMR": null, "Longitude": 95.22923279, "Latitude": 15.91726971, "PCODE_V": 9.6 }, "geometry": { "type": "Point", "coordinates": [ 95.22923279, 15.91726971 ] } },
{ "type": "Feature", "properties": { "ST": "Ayeyarwady", "ST_PCODE": "MMR017", "DT": "Pyapon", "DT_PCODE": "MMR017D006", "TS": "Bogale", "TS_PCODE": "MMR017024", "VT": "Chaung Bye Gyi", "VT_PCODE": "MMR017024074", "VILLAGE": "Pauk Sein Kya", "VLG_PCODE": 155507.0, "VLG_MMR": "ပေါက်ဆိန်ကျ", "ALTVLG_ENG": null, "ALTVLG_MMR": null, "Longitude": 95.1992824, "Latitude": 15.8721468, "PCODE_V": 9.6 }, "geometry": { "type": "Point", "coordinates": [ 95.1992824, 15.8721468 ] } },
{ "type": "Feature", "properties": { "ST": "Ayeyarwady", "ST_PCODE": "MMR017", "DT": "Pyapon", "DT_PCODE": "MMR017D006", "TS": "Bogale", "TS_PCODE": "MMR017024", "VT": "Chaung Bye Gyi", "VT_PCODE": "MMR017024074", "VILLAGE": "Yway Chaung Gyi", "VLG_PCODE": 164117.0, "VLG_MMR": "ရွေးချောင်းကြီး", "ALTVLG_ENG": "Gway Chaung Gyi", "ALTVLG_MMR": "ဂွေးချောင်းကြီး", "Longitude": 95.22122955, "Latitude": 15.93939972, "PCODE_V": 9.6 }, "geometry": { "type": "Point", "coordinates": [ 95.22122955, 15.93939972 ] } },
{ "type": "Feature", "properties": { "ST": "Ayeyarwady", "ST_PCODE": "MMR017", "DT": "Pyapon", "DT_PCODE": "MMR017D006", "TS": "Bogale", "TS_PCODE": "MMR017024", "VT": "Chaung Bye Gyi", "VT_PCODE": "MMR017024074", "VILLAGE": "Zee Hpyu", "VLG_PCODE": 155504.0, "VLG_MMR": "ဇီးဖြူ", "ALTVLG_ENG": null, "ALTVLG_MMR": null, "Longitude": 95.18591309, "Latitude": 15.87479019, "PCODE_V": 9.6 }, "geometry": { "type": "Point", "coordinates": [ 95.18591309, 15.87479019 ] } },
{ "type": "Feature", "properties": { "ST": "Ayeyarwady", "ST_PCODE": "MMR017", "DT": "Pyapon", "DT_PCODE": "MMR017D006", "TS": "Bogale", "TS_PCODE": "MMR017024", "VT": "Chaung Gyi Wa", "VT_PCODE": "MMR017024066", "VILLAGE": "Ku Lar Su", "VLG_PCODE": 151112.0, "VLG_MMR": "ကုလားစု", "ALTVLG_ENG": null, "ALTVLG_MMR": null, "Longitude": 95.41758728000001, "Latitude": 16.14649963, "PCODE_V": 9.6 }, "geometry": { "type": "Point", "coordinates": [ 95.41758728, 16.14649963 ] } },
{ "type": "Feature", "properties": { "ST": "Ayeyarwady", "ST_PCODE": "MMR017", "DT": "Pyapon", "DT_PCODE": "MMR017D006", "TS": "Bogale", "TS_PCODE": "MMR017024", "VT": "Chaung Gyi Wa", "VT_PCODE": "MMR017024066", "VILLAGE": "Kyein Chaung", "VLG_PCODE": 151113.0, "VLG_MMR": "ကျိန်ချောင်း", "ALTVLG_ENG": null, "ALTVLG_MMR": null, "Longitude": 95.4415838, "Latitude": 16.1376083, "PCODE_V": 9.6 }, "geometry": { "type": "Point", "coordinates": [ 95.4415838, 16.1376083 ] } },
{ "type": "Feature", "properties": { "ST": "Ayeyarwady", "ST_PCODE": "MMR017", "DT": "Pyapon", "DT_PCODE": "MMR017D006", "TS": "Bogale", "TS_PCODE": "MMR017024", "VT": "Chaung Gyi Wa", "VT_PCODE": "MMR017024066", "VILLAGE": "Ta Yoke Su", "VLG_PCODE": 151114.0, "VLG_MMR": "တရုပ်စု", "ALTVLG_ENG": null, "ALTVLG_MMR": null, "Longitude": 95.4256401, "Latitude": 16.1305624, "PCODE_V": 9.6 }, "geometry": { "type": "Point", "coordinates": [ 95.4256401, 16.1305624 ] } },
{ "type": "Feature", "properties": { "ST": "Ayeyarwady", "ST_PCODE": "MMR017", "DT": "Pyapon", "DT_PCODE": "MMR017D006", "TS": "Bogale", "TS_PCODE": "MMR017024", "VT": "Chaung Gyi Wa", "VT_PCODE": "MMR017024066", "VILLAGE": "Thea Chaung", "VLG_PCODE": 151111.0, "VLG_MMR": "သဲချောင်း", "ALTVLG_ENG": null, "ALTVLG_MMR": null, "Longitude": 95.4259647, "Latitude": 16.1574804, "PCODE_V": 9.6 }, "geometry": { "type": "Point", "coordinates": [ 95.4259647, 16.1574804 ] } },
{ "type": "Feature", "properties": { "ST": "Ayeyarwady", "ST_PCODE": "MMR017", "DT": "Pyapon", "DT_PCODE": "MMR017D006", "TS": "Bogale", "TS_PCODE": "MMR017024", "VT": "Chaung Gyi Wa", "VT_PCODE": "MMR017024066", "VILLAGE": "Ywar Thit", "VLG_PCODE": 151115.0, "VLG_MMR": "ရွာသစ်", "ALTVLG_ENG": null, "ALTVLG_MMR": null, "Longitude": 95.4399858, "Latitude": 16.1508716, "PCODE_V": 9.6 }, "geometry": { "type": "Point", "coordinates": [ 95.4399858, 16.1508716 ] } },
{ "type": "Feature", "properties": { "ST": "Ayeyarwady", "ST_PCODE": "MMR017", "DT": "Pyapon", "DT_PCODE": "MMR017D006", "TS": "Bogale", "TS_PCODE": "MMR017024", "VT": "Chaung Hpyar (Nyi Naung)", "VT_PCODE": "MMR017024034", "VILLAGE": "Chaung Hpyar", "VLG_PCODE": 151139.0, "VLG_MMR": "ချောင်းဖျား", "ALTVLG_ENG": null, "ALTVLG_MMR": null, "Longitude": 95.3584037, "Latitude": 16.2919831, "PCODE_V": 9.6 }, "geometry": { "type": "Point", "coordinates": [ 95.3584037, 16.2919831 ] } },
{ "type": "Feature", "properties": { "ST": "Ayeyarwady", "ST_PCODE": "MMR017", "DT": "Pyapon", "DT_PCODE": "MMR017D006", "TS": "Bogale", "TS_PCODE": "MMR017024", "VT": "Chaung Hpyar (Nyi Naung)", "VT_PCODE": "MMR017024034", "VILLAGE": "Htone Bu Kwe Hpyar", "VLG_PCODE": 151140.0, "VLG_MMR": "ထုံးဘူးကွဲဖျား", "ALTVLG_ENG": null, "ALTVLG_MMR": null, "Longitude": 95.3690128, "Latitude": 16.2937747, "PCODE_V": 9.6 }, "geometry": { "type": "Point", "coordinates": [ 95.3690128, 16.2937747 ] } },
{ "type": "Feature", "properties": { "ST": "Ayeyarwady", "ST_PCODE": "MMR017", "DT": "Pyapon", "DT_PCODE": "MMR017D006", "TS": "Bogale", "TS_PCODE": "MMR017024", "VT": "Chaung Hpyar (Nyi Naung)", "VT_PCODE": "MMR017024034", "VILLAGE": "Kan Su", "VLG_PCODE": 151141.0, "VLG_MMR": "ကံစု", "ALTVLG_ENG": null, "ALTVLG_MMR": null, "Longitude": 95.36782074, "Latitude": 16.28030968, "PCODE_V": 9.6 }, "geometry": { "type": "Point", "coordinates": [ 95.36782074, 16.28030968 ] } },
{ "type": "Feature", "properties": { "ST": "Ayeyarwady", "ST_PCODE": "MMR017", "DT": "Pyapon", "DT_PCODE": "MMR017D006", "TS": "Bogale", "TS_PCODE": "MMR017024", "VT": "Chaung Hpyar (Nyi Naung)", "VT_PCODE": "MMR017024034", "VILLAGE": "Kyar", "VLG_PCODE": 151142.0, "VLG_MMR": "ကြား", "ALTVLG_ENG": null, "ALTVLG_MMR": null, "Longitude": 95.37180328, "Latitude": 16.2808094, "PCODE_V": 9.6 }, "geometry": { "type": "Point", "coordinates": [ 95.37180328, 16.2808094 ] } },
{ "type": "Feature", "properties": { "ST": "Ayeyarwady", "ST_PCODE": "MMR017", "DT": "Pyapon", "DT_PCODE": "MMR017D006", "TS": "Bogale", "TS_PCODE": "MMR017024", "VT": "Daunt Gyi", "VT_PCODE": "MMR017024064", "VILLAGE": "Daunt Gyi", "VLG_PCODE": 151420.0, "VLG_MMR": "ဒေါင့်ကြီး", "ALTVLG_ENG": null, "ALTVLG_MMR": null, "Longitude": 95.4562912, "Latitude": 16.04413986, "PCODE_V": 9.6 }, "geometry": { "type": "Point", "coordinates": [ 95.4562912, 16.04413986 ] } },
{ "type": "Feature", "properties": { "ST": "Ayeyarwady", "ST_PCODE": "MMR017", "DT": "Pyapon", "DT_PCODE": "MMR017D006", "TS": "Bogale", "TS_PCODE": "MMR017024", "VT": "Daunt Gyi", "VT_PCODE": "MMR017024064", "VILLAGE": "Ka Tha Baung", "VLG_PCODE": 151424.0, "VLG_MMR": "ကသဘောင်း", "ALTVLG_ENG": null, "ALTVLG_MMR": null, "Longitude": 95.4319504, "Latitude": 16.0460978, "PCODE_V": 9.6 }, "geometry": { "type": "Point", "coordinates": [ 95.4319504, 16.0460978 ] } },
{ "type": "Feature", "properties": { "ST": "Ayeyarwady", "ST_PCODE": "MMR017", "DT": "Pyapon", "DT_PCODE": "MMR017D006", "TS": "Bogale", "TS_PCODE": "MMR017024", "VT": "Daunt Gyi", "VT_PCODE": "MMR017024064", "VILLAGE": "Ka Tha Paung Ywar Thit", "VLG_PCODE": 218746.0, "VLG_MMR": "ကသပေါင်းရွာသစ်", "ALTVLG_ENG": null, "ALTVLG_MMR": null, "Longitude": 95.4407627, "Latitude": 16.0376654, "PCODE_V": 9.6 }, "geometry": { "type": "Point", "coordinates": [ 95.4407627, 16.0376654 ] } },
{ "type": "Feature", "properties": { "ST": "Ayeyarwady", "ST_PCODE": "MMR017", "DT": "Pyapon", "DT_PCODE": "MMR017D006", "TS": "Bogale", "TS_PCODE": "MMR017024", "VT": "Daunt Gyi", "VT_PCODE": "MMR017024064", "VILLAGE": "Kat Tha Hmyin Sar Hpyu Su", "VLG_PCODE": 151421.0, "VLG_MMR": "ကဿမျှင်စာြဖူစု", "ALTVLG_ENG": null, "ALTVLG_MMR": null, "Longitude": 95.46398163000001, "Latitude": 16.06126022, "PCODE_V": 9.6 }, "geometry": { "type": "Point", "coordinates": [ 95.46398163, 16.06126022 ] } },
{ "type": "Feature", "properties": { "ST": "Ayeyarwady", "ST_PCODE": "MMR017", "DT": "Pyapon", "DT_PCODE": "MMR017D006", "TS": "Bogale", "TS_PCODE": "MMR017024", "VT": "Daunt Gyi", "VT_PCODE": "MMR017024064", "VILLAGE": "Kwin Pon", "VLG_PCODE": 151438.0, "VLG_MMR": "ကွင်းပုံ", "ALTVLG_ENG": null, "ALTVLG_MMR": null, "Longitude": 95.40281677, "Latitude": 16.05489922, "PCODE_V": 9.6 }, "geometry": { "type": "Point", "coordinates": [ 95.40281677, 16.05489922 ] } },
{ "type": "Feature", "properties": { "ST": "Ayeyarwady", "ST_PCODE": "MMR017", "DT": "Pyapon", "DT_PCODE": "MMR017D006", "TS": "Bogale", "TS_PCODE": "MMR017024", "VT": "Daunt Gyi", "VT_PCODE": "MMR017024064", "VILLAGE": "Ngwe Nyi Naung", "VLG_PCODE": 151426.0, "VLG_MMR": "ငွေညီနောင်", "ALTVLG_ENG": null, "ALTVLG_MMR": null, "Longitude": 95.39292, "Latitude": 16.03525, "PCODE_V": 9.6 }, "geometry": { "type": "Point", "coordinates": [ 95.39292, 16.03525 ] } },
{ "type": "Feature", "properties": { "ST": "Ayeyarwady", "ST_PCODE": "MMR017", "DT": "Pyapon", "DT_PCODE": "MMR017D006", "TS": "Bogale", "TS_PCODE": "MMR017024", "VT": "Daunt Gyi", "VT_PCODE": "MMR017024064", "VILLAGE": "Thea Chaung", "VLG_PCODE": 151439.0, "VLG_MMR": "သဲချောင်း", "ALTVLG_ENG": null, "ALTVLG_MMR": null, "Longitude": 95.4386174, "Latitude": 15.997677, "PCODE_V": 9.6 }, "geometry": { "type": "Point", "coordinates": [ 95.4386174, 15.997677 ] } },
{ "type": "Feature", "properties": { "ST": "Ayeyarwady", "ST_PCODE": "MMR017", "DT": "Pyapon", "DT_PCODE": "MMR017D006", "TS": "Bogale", "TS_PCODE": "MMR017024", "VT": "Ga Yan", "VT_PCODE": "MMR017024054", "VILLAGE": "Ga Yan", "VLG_PCODE": 151615.0, "VLG_MMR": "ဂရမ်း", "ALTVLG_ENG": null, "ALTVLG_MMR": null, "Longitude": 95.37241364, "Latitude": 16.10495949, "PCODE_V": 9.6 }, "geometry": { "type": "Point", "coordinates": [ 95.37241364, 16.10495949 ] } },
{ "type": "Feature", "properties": { "ST": "Ayeyarwady", "ST_PCODE": "MMR017", "DT": "Pyapon", "DT_PCODE": "MMR017D006", "TS": "Bogale", "TS_PCODE": "MMR017024", "VT": "Ga Yan", "VT_PCODE": "MMR017024054", "VILLAGE": "Khit San", "VLG_PCODE": 216725.0, "VLG_MMR": "​ခေတ်ဆန်း", "ALTVLG_ENG": null, "ALTVLG_MMR": null, "Longitude": 95.3705417, "Latitude": 16.1366433, "PCODE_V": 9.6 }, "geometry": { "type": "Point", "coordinates": [ 95.3705417, 16.1366433 ] } },
{ "type": "Feature", "properties": { "ST": "Ayeyarwady", "ST_PCODE": "MMR017", "DT": "Pyapon", "DT_PCODE": "MMR017D006", "TS": "Bogale", "TS_PCODE": "MMR017024", "VT": "Ga Yan", "VT_PCODE": "MMR017024054", "VILLAGE": "Kwin Sa Khan", "VLG_PCODE": 151618.0, "VLG_MMR": "ကွင်းစခန်း", "ALTVLG_ENG": null, "ALTVLG_MMR": null, "Longitude": 95.34718323, "Latitude": 16.12631989, "PCODE_V": 9.6 }, "geometry": { "type": "Point", "coordinates": [ 95.34718323, 16.12631989 ] } },
{ "type": "Feature", "properties": { "ST": "Ayeyarwady", "ST_PCODE": "MMR017", "DT": "Pyapon", "DT_PCODE": "MMR017D006", "TS": "Bogale", "TS_PCODE": "MMR017024", "VT": "Ga Yan", "VT_PCODE": "MMR017024054", "VILLAGE": "Kyee Chaung", "VLG_PCODE": 151617.0, "VLG_MMR": "ကျီးချောင်း", "ALTVLG_ENG": null, "ALTVLG_MMR": null, "Longitude": 95.35375214, "Latitude": 16.13554001, "PCODE_V": 9.6 }, "geometry": { "type": "Point", "coordinates": [ 95.35375214, 16.13554001 ] } },
{ "type": "Feature", "properties": { "ST": "Ayeyarwady", "ST_PCODE": "MMR017", "DT": "Pyapon", "DT_PCODE": "MMR017D006", "TS": "Bogale", "TS_PCODE": "MMR017024", "VT": "Ga Yan", "VT_PCODE": "MMR017024054", "VILLAGE": "Thar Hpyan", "VLG_PCODE": 151624.0, "VLG_MMR": "သာဖျန်", "ALTVLG_ENG": null, "ALTVLG_MMR": null, "Longitude": 95.3805155, "Latitude": 16.1553874, "PCODE_V": 9.6 }, "geometry": { "type": "Point", "coordinates": [ 95.3805155, 16.1553874 ] } },
{ "type": "Feature", "properties": { "ST": "Ayeyarwady", "ST_PCODE": "MMR017", "DT": "Pyapon", "DT_PCODE": "MMR017D006", "TS": "Bogale", "TS_PCODE": "MMR017024", "VT": "Ga Yan", "VT_PCODE": "MMR017024054", "VILLAGE": "Thar Yar Kone", "VLG_PCODE": 151619.0, "VLG_MMR": "သာယာကုန်း", "ALTVLG_ENG": null, "ALTVLG_MMR": null, "Longitude": 95.33574677, "Latitude": 16.1128006, "PCODE_V": 9.6 }, "geometry": { "type": "Point", "coordinates": [ 95.33574677, 16.1128006 ] } },
{ "type": "Feature", "properties": { "ST": "Ayeyarwady", "ST_PCODE": "MMR017", "DT": "Pyapon", "DT_PCODE": "MMR017D006", "TS": "Bogale", "TS_PCODE": "MMR017024", "VT": "Ga Yan", "VT_PCODE": "MMR017024054", "VILLAGE": "Ywar Thit", "VLG_PCODE": 151621.0, "VLG_MMR": "ရွာသစ်", "ALTVLG_ENG": null, "ALTVLG_MMR": null, "Longitude": 95.36209106, "Latitude": 16.15014076, "PCODE_V": 9.6 }, "geometry": { "type": "Point", "coordinates": [ 95.36209106, 16.15014076 ] } },
{ "type": "Feature", "properties": { "ST": "Ayeyarwady", "ST_PCODE": "MMR017", "DT": "Pyapon", "DT_PCODE": "MMR017D006", "TS": "Bogale", "TS_PCODE": "MMR017024", "VT": "Ga Yan", "VT_PCODE": "MMR017024054", "VILLAGE": "Zee Hpyu Myit Tan", "VLG_PCODE": 151616.0, "VLG_MMR": "ဇီးဖြူမြစ်တန်း", "ALTVLG_ENG": null, "ALTVLG_MMR": null, "Longitude": 95.38224792, "Latitude": 16.11495018, "PCODE_V": 9.6 }, "geometry": { "type": "Point", "coordinates": [ 95.38224792, 16.11495018 ] } },
{ "type": "Feature", "properties": { "ST": "Ayeyarwady", "ST_PCODE": "MMR017", "DT": "Pyapon", "DT_PCODE": "MMR017D006", "TS": "Bogale", "TS_PCODE": "MMR017024", "VT": "Haing Si", "VT_PCODE": "MMR017024022", "VILLAGE": "Gway Tauk Kone", "VLG_PCODE": 151884.0, "VLG_MMR": "ဂွေးတောက်ကုန်း", "ALTVLG_ENG": null, "ALTVLG_MMR": null, "Longitude": 95.4699453, "Latitude": 16.3135457, "PCODE_V": 9.6 }, "geometry": { "type": "Point", "coordinates": [ 95.4699453, 16.3135457 ] } },
{ "type": "Feature", "properties": { "ST": "Ayeyarwady", "ST_PCODE": "MMR017", "DT": "Pyapon", "DT_PCODE": "MMR017D006", "TS": "Bogale", "TS_PCODE": "MMR017024", "VT": "Haing Si", "VT_PCODE": "MMR017024022", "VILLAGE": "Haing Si Ywar Ma", "VLG_PCODE": 151879.0, "VLG_MMR": "ဟိုင်းစီရွာမ", "ALTVLG_ENG": null, "ALTVLG_MMR": null, "Longitude": 95.4856037, "Latitude": 16.316694, "PCODE_V": 9.6 }, "geometry": { "type": "Point", "coordinates": [ 95.4856037, 16.316694 ] } },
{ "type": "Feature", "properties": { "ST": "Ayeyarwady", "ST_PCODE": "MMR017", "DT": "Pyapon", "DT_PCODE": "MMR017D006", "TS": "Bogale", "TS_PCODE": "MMR017024", "VT": "Haing Si", "VT_PCODE": "MMR017024022", "VILLAGE": "Hpoe Shwe Lone", "VLG_PCODE": 151885.0, "VLG_MMR": "ဖိုးရွှေလုံး", "ALTVLG_ENG": null, "ALTVLG_MMR": null, "Longitude": 95.4674951, "Latitude": 16.2893308, "PCODE_V": 9.6 }, "geometry": { "type": "Point", "coordinates": [ 95.4674951, 16.2893308 ] } },
{ "type": "Feature", "properties": { "ST": "Ayeyarwady", "ST_PCODE": "MMR017", "DT": "Pyapon", "DT_PCODE": "MMR017D006", "TS": "Bogale", "TS_PCODE": "MMR017024", "VT": "Haing Si", "VT_PCODE": "MMR017024022", "VILLAGE": "Kan Kone", "VLG_PCODE": 151886.0, "VLG_MMR": "ကံကုန်း", "ALTVLG_ENG": null, "ALTVLG_MMR": null, "Longitude": 95.4772736, "Latitude": 16.2953057, "PCODE_V": 9.6 }, "geometry": { "type": "Point", "coordinates": [ 95.4772736, 16.2953057 ] } },
{ "type": "Feature", "properties": { "ST": "Ayeyarwady", "ST_PCODE": "MMR017", "DT": "Pyapon", "DT_PCODE": "MMR017D006", "TS": "Bogale", "TS_PCODE": "MMR017024", "VT": "Haing Si", "VT_PCODE": "MMR017024022", "VILLAGE": "Ma Sein", "VLG_PCODE": 151888.0, "VLG_MMR": "မစိန်း", "ALTVLG_ENG": null, "ALTVLG_MMR": null, "Longitude": 95.4858328, "Latitude": 16.2899841, "PCODE_V": 9.6 }, "geometry": { "type": "Point", "coordinates": [ 95.4858328, 16.2899841 ] } },
{ "type": "Feature", "properties": { "ST": "Ayeyarwady", "ST_PCODE": "MMR017", "DT": "Pyapon", "DT_PCODE": "MMR017D006", "TS": "Bogale", "TS_PCODE": "MMR017024", "VT": "Haing Si", "VT_PCODE": "MMR017024022", "VILLAGE": "Sa Yar Yoe", "VLG_PCODE": 151889.0, "VLG_MMR": "ဆရာရိုး", "ALTVLG_ENG": null, "ALTVLG_MMR": null, "Longitude": 95.49076843, "Latitude": 16.30290031, "PCODE_V": 9.6 }, "geometry": { "type": "Point", "coordinates": [ 95.49076843, 16.30290031 ] } },
{ "type": "Feature", "properties": { "ST": "Ayeyarwady", "ST_PCODE": "MMR017", "DT": "Pyapon", "DT_PCODE": "MMR017D006", "TS": "Bogale", "TS_PCODE": "MMR017024", "VT": "Haing Si", "VT_PCODE": "MMR017024022", "VILLAGE": "Yae Kyaw Wa", "VLG_PCODE": 151887.0, "VLG_MMR": "ရေကျော်ဝ", "ALTVLG_ENG": null, "ALTVLG_MMR": null, "Longitude": 95.47550201, "Latitude": 16.28869057, "PCODE_V": 9.6 }, "geometry": { "type": "Point", "coordinates": [ 95.47550201, 16.28869057 ] } },
{ "type": "Feature", "properties": { "ST": "Ayeyarwady", "ST_PCODE": "MMR017", "DT": "Pyapon", "DT_PCODE": "MMR017D006", "TS": "Bogale", "TS_PCODE": "MMR017024", "VT": "Haing Si", "VT_PCODE": "MMR017024022", "VILLAGE": "Ywar Tan Shey Ywar Ma", "VLG_PCODE": 151882.0, "VLG_MMR": "ရွာတန်းရှည်ရွာမ", "ALTVLG_ENG": null, "ALTVLG_MMR": null, "Longitude": 95.4519156, "Latitude": 16.3013576, "PCODE_V": 9.6 }, "geometry": { "type": "Point", "coordinates": [ 95.4519156, 16.3013576 ] } },
{ "type": "Feature", "properties": { "ST": "Ayeyarwady", "ST_PCODE": "MMR017", "DT": "Pyapon", "DT_PCODE": "MMR017D006", "TS": "Bogale", "TS_PCODE": "MMR017024", "VT": "Hay Man", "VT_PCODE": "MMR017024044", "VILLAGE": "Aye", "VLG_PCODE": 151903.0, "VLG_MMR": "အေး", "ALTVLG_ENG": null, "ALTVLG_MMR": null, "Longitude": 95.39067841000001, "Latitude": 16.20783997, "PCODE_V": 9.6 }, "geometry": { "type": "Point", "coordinates": [ 95.39067841, 16.20783997 ] } },
{ "type": "Feature", "properties": { "ST": "Ayeyarwady", "ST_PCODE": "MMR017", "DT": "Pyapon", "DT_PCODE": "MMR017D006", "TS": "Bogale", "TS_PCODE": "MMR017024", "VT": "Hay Man", "VT_PCODE": "MMR017024044", "VILLAGE": "Bu Tin Su", "VLG_PCODE": 151916.0, "VLG_MMR": "ဘူတင်းစု", "ALTVLG_ENG": null, "ALTVLG_MMR": null, "Longitude": 95.43362305, "Latitude": 16.22933374, "PCODE_V": 9.6 }, "geometry": { "type": "Point", "coordinates": [ 95.43362305, 16.22933374 ] } },
{ "type": "Feature", "properties": { "ST": "Ayeyarwady", "ST_PCODE": "MMR017", "DT": "Pyapon", "DT_PCODE": "MMR017D006", "TS": "Bogale", "TS_PCODE": "MMR017024", "VT": "Hay Man", "VT_PCODE": "MMR017024044", "VILLAGE": "Hay Man", "VLG_PCODE": 151891.0, "VLG_MMR": "​ဟေမန်", "ALTVLG_ENG": null, "ALTVLG_MMR": null, "Longitude": 95.44171143, "Latitude": 16.19161987, "PCODE_V": 9.6 }, "geometry": { "type": "Point", "coordinates": [ 95.44171143, 16.19161987 ] } },
{ "type": "Feature", "properties": { "ST": "Ayeyarwady", "ST_PCODE": "MMR017", "DT": "Pyapon", "DT_PCODE": "MMR017D006", "TS": "Bogale", "TS_PCODE": "MMR017024", "VT": "Hay Man", "VT_PCODE": "MMR017024044", "VILLAGE": "Hnar Khaung Chaung Gyi", "VLG_PCODE": 151900.0, "VLG_MMR": "နှာခေါင်းချောင်းကြီး", "ALTVLG_ENG": null, "ALTVLG_MMR": null, "Longitude": 95.4249598, "Latitude": 16.1955763, "PCODE_V": 9.6 }, "geometry": { "type": "Point", "coordinates": [ 95.4249598, 16.1955763 ] } },
{ "type": "Feature", "properties": { "ST": "Ayeyarwady", "ST_PCODE": "MMR017", "DT": "Pyapon", "DT_PCODE": "MMR017D006", "TS": "Bogale", "TS_PCODE": "MMR017024", "VT": "Hay Man", "VT_PCODE": "MMR017024044", "VILLAGE": "Hnar Khaung Chaung Lay", "VLG_PCODE": 151901.0, "VLG_MMR": "နှာခေါင်းချောင်းလေး", "ALTVLG_ENG": null, "ALTVLG_MMR": null, "Longitude": 95.425863, "Latitude": 16.204436, "PCODE_V": 9.6 }, "geometry": { "type": "Point", "coordinates": [ 95.425863, 16.204436 ] } },
{ "type": "Feature", "properties": { "ST": "Ayeyarwady", "ST_PCODE": "MMR017", "DT": "Pyapon", "DT_PCODE": "MMR017D006", "TS": "Bogale", "TS_PCODE": "MMR017024", "VT": "Hay Man", "VT_PCODE": "MMR017024044", "VILLAGE": "Htone", "VLG_PCODE": 151893.0, "VLG_MMR": "ထုံး", "ALTVLG_ENG": null, "ALTVLG_MMR": null, "Longitude": 95.4068855, "Latitude": 16.1910922, "PCODE_V": 9.6 }, "geometry": { "type": "Point", "coordinates": [ 95.4068855, 16.1910922 ] } },
{ "type": "Feature", "properties": { "ST": "Ayeyarwady", "ST_PCODE": "MMR017", "DT": "Pyapon", "DT_PCODE": "MMR017D006", "TS": "Bogale", "TS_PCODE": "MMR017024", "VT": "Hay Man", "VT_PCODE": "MMR017024044", "VILLAGE": "Kan Su", "VLG_PCODE": 151906.0, "VLG_MMR": "ကံစု", "ALTVLG_ENG": null, "ALTVLG_MMR": null, "Longitude": 95.4476143, "Latitude": 16.2245687, "PCODE_V": 9.6 }, "geometry": { "type": "Point", "coordinates": [ 95.4476143, 16.2245687 ] } },
{ "type": "Feature", "properties": { "ST": "Ayeyarwady", "ST_PCODE": "MMR017", "DT": "Pyapon", "DT_PCODE": "MMR017D006", "TS": "Bogale", "TS_PCODE": "MMR017024", "VT": "Hay Man", "VT_PCODE": "MMR017024044", "VILLAGE": "Kat Pa Nar", "VLG_PCODE": 151915.0, "VLG_MMR": "ကပ်ပနား", "ALTVLG_ENG": null, "ALTVLG_MMR": null, "Longitude": 95.3874842, "Latitude": 16.2087447, "PCODE_V": 9.6 }, "geometry": { "type": "Point", "coordinates": [ 95.3874842, 16.2087447 ] } },
{ "type": "Feature", "properties": { "ST": "Ayeyarwady", "ST_PCODE": "MMR017", "DT": "Pyapon", "DT_PCODE": "MMR017D006", "TS": "Bogale", "TS_PCODE": "MMR017024", "VT": "Hay Man", "VT_PCODE": "MMR017024044", "VILLAGE": "Kha Yan Thi Chaung", "VLG_PCODE": 151892.0, "VLG_MMR": "ခရမ်းသီးချောင်း", "ALTVLG_ENG": null, "ALTVLG_MMR": null, "Longitude": 95.422434, "Latitude": 16.2097213, "PCODE_V": 9.6 }, "geometry": { "type": "Point", "coordinates": [ 95.422434, 16.2097213 ] } },
{ "type": "Feature", "properties": { "ST": "Ayeyarwady", "ST_PCODE": "MMR017", "DT": "Pyapon", "DT_PCODE": "MMR017D006", "TS": "Bogale", "TS_PCODE": "MMR017024", "VT": "Hay Man", "VT_PCODE": "MMR017024044", "VILLAGE": "Kin Tat", "VLG_PCODE": 151902.0, "VLG_MMR": "ကင်းတပ်", "ALTVLG_ENG": null, "ALTVLG_MMR": null, "Longitude": 95.46840668, "Latitude": 16.2271595, "PCODE_V": 9.6 }, "geometry": { "type": "Point", "coordinates": [ 95.46840668, 16.2271595 ] } },
{ "type": "Feature", "properties": { "ST": "Ayeyarwady", "ST_PCODE": "MMR017", "DT": "Pyapon", "DT_PCODE": "MMR017D006", "TS": "Bogale", "TS_PCODE": "MMR017024", "VT": "Hay Man", "VT_PCODE": "MMR017024044", "VILLAGE": "Kyein Chaung", "VLG_PCODE": 151896.0, "VLG_MMR": "ကျိန်ချောင်း", "ALTVLG_ENG": null, "ALTVLG_MMR": null, "Longitude": 95.3971402, "Latitude": 16.1824004, "PCODE_V": 9.6 }, "geometry": { "type": "Point", "coordinates": [ 95.3971402, 16.1824004 ] } },
{ "type": "Feature", "properties": { "ST": "Ayeyarwady", "ST_PCODE": "MMR017", "DT": "Pyapon", "DT_PCODE": "MMR017D006", "TS": "Bogale", "TS_PCODE": "MMR017024", "VT": "Hay Man", "VT_PCODE": "MMR017024044", "VILLAGE": "Kyon Hlut Gyi", "VLG_PCODE": 151907.0, "VLG_MMR": "ကျုံလွှတ်ကြီး", "ALTVLG_ENG": null, "ALTVLG_MMR": null, "Longitude": 95.44117, "Latitude": 16.21909, "PCODE_V": 9.6 }, "geometry": { "type": "Point", "coordinates": [ 95.44117, 16.21909 ] } },
{ "type": "Feature", "properties": { "ST": "Ayeyarwady", "ST_PCODE": "MMR017", "DT": "Pyapon", "DT_PCODE": "MMR017D006", "TS": "Bogale", "TS_PCODE": "MMR017024", "VT": "Hay Man", "VT_PCODE": "MMR017024044", "VILLAGE": "Kyon Hlut Thit", "VLG_PCODE": 151898.0, "VLG_MMR": "ကျုံလွှတ်သစ်", "ALTVLG_ENG": null, "ALTVLG_MMR": null, "Longitude": 95.4391488, "Latitude": 16.2204047, "PCODE_V": 9.6 }, "geometry": { "type": "Point", "coordinates": [ 95.4391488, 16.2204047 ] } },
{ "type": "Feature", "properties": { "ST": "Ayeyarwady", "ST_PCODE": "MMR017", "DT": "Pyapon", "DT_PCODE": "MMR017D006", "TS": "Bogale", "TS_PCODE": "MMR017024", "VT": "Hay Man", "VT_PCODE": "MMR017024044", "VILLAGE": "La Mu Oke", "VLG_PCODE": 151904.0, "VLG_MMR": "လမုအုပ်", "ALTVLG_ENG": null, "ALTVLG_MMR": null, "Longitude": 95.47393799, "Latitude": 16.22110939, "PCODE_V": 9.6 }, "geometry": { "type": "Point", "coordinates": [ 95.47393799, 16.22110939 ] } },
{ "type": "Feature", "properties": { "ST": "Ayeyarwady", "ST_PCODE": "MMR017", "DT": "Pyapon", "DT_PCODE": "MMR017D006", "TS": "Bogale", "TS_PCODE": "MMR017024", "VT": "Hay Man", "VT_PCODE": "MMR017024044", "VILLAGE": "La Tar Chaung", "VLG_PCODE": 151910.0, "VLG_MMR": "လတာချောင်း", "ALTVLG_ENG": null, "ALTVLG_MMR": null, "Longitude": 95.4565, "Latitude": 16.19237, "PCODE_V": 9.6 }, "geometry": { "type": "Point", "coordinates": [ 95.4565, 16.19237 ] } },
{ "type": "Feature", "properties": { "ST": "Ayeyarwady", "ST_PCODE": "MMR017", "DT": "Pyapon", "DT_PCODE": "MMR017D006", "TS": "Bogale", "TS_PCODE": "MMR017024", "VT": "Hay Man", "VT_PCODE": "MMR017024044", "VILLAGE": "Lay Ein Tan", "VLG_PCODE": 151895.0, "VLG_MMR": "လေးအိမ်တန်း", "ALTVLG_ENG": null, "ALTVLG_MMR": null, "Longitude": 95.4036812, "Latitude": 16.1681444, "PCODE_V": 9.6 }, "geometry": { "type": "Point", "coordinates": [ 95.4036812, 16.1681444 ] } },
{ "type": "Feature", "properties": { "ST": "Ayeyarwady", "ST_PCODE": "MMR017", "DT": "Pyapon", "DT_PCODE": "MMR017D006", "TS": "Bogale", "TS_PCODE": "MMR017024", "VT": "Hay Man", "VT_PCODE": "MMR017024044", "VILLAGE": "Lay Gwa", "VLG_PCODE": 151897.0, "VLG_MMR": "​လေးဂွ", "ALTVLG_ENG": null, "ALTVLG_MMR": null, "Longitude": 95.4338172, "Latitude": 16.1775293, "PCODE_V": 9.6 }, "geometry": { "type": "Point", "coordinates": [ 95.4338172, 16.1775293 ] } },
{ "type": "Feature", "properties": { "ST": "Ayeyarwady", "ST_PCODE": "MMR017", "DT": "Pyapon", "DT_PCODE": "MMR017D006", "TS": "Bogale", "TS_PCODE": "MMR017024", "VT": "Hay Man", "VT_PCODE": "MMR017024044", "VILLAGE": "Leik Ka Bar", "VLG_PCODE": 151914.0, "VLG_MMR": "လိပ်ကမ္ဘာ", "ALTVLG_ENG": null, "ALTVLG_MMR": null, "Longitude": 95.3991015, "Latitude": 16.210176, "PCODE_V": 9.6 }, "geometry": { "type": "Point", "coordinates": [ 95.3991015, 16.210176 ] } },
{ "type": "Feature", "properties": { "ST": "Ayeyarwady", "ST_PCODE": "MMR017", "DT": "Pyapon", "DT_PCODE": "MMR017D006", "TS": "Bogale", "TS_PCODE": "MMR017024", "VT": "Hay Man", "VT_PCODE": "MMR017024044", "VILLAGE": "Myit Kyoe", "VLG_PCODE": 151913.0, "VLG_MMR": "မြစ်ကျိုး", "ALTVLG_ENG": null, "ALTVLG_MMR": null, "Longitude": 95.4347211, "Latitude": 16.2295712, "PCODE_V": 9.6 }, "geometry": { "type": "Point", "coordinates": [ 95.4347211, 16.2295712 ] } },
{ "type": "Feature", "properties": { "ST": "Ayeyarwady", "ST_PCODE": "MMR017", "DT": "Pyapon", "DT_PCODE": "MMR017D006", "TS": "Bogale", "TS_PCODE": "MMR017024", "VT": "Hay Man", "VT_PCODE": "MMR017024044", "VILLAGE": "Nga Man Chaung", "VLG_PCODE": 151899.0, "VLG_MMR": "ငမန်းချောင်း", "ALTVLG_ENG": null, "ALTVLG_MMR": null, "Longitude": 95.4285648, "Latitude": 16.2211861, "PCODE_V": 9.6 }, "geometry": { "type": "Point", "coordinates": [ 95.4285648, 16.2211861 ] } },
{ "type": "Feature", "properties": { "ST": "Ayeyarwady", "ST_PCODE": "MMR017", "DT": "Pyapon", "DT_PCODE": "MMR017D006", "TS": "Bogale", "TS_PCODE": "MMR017024", "VT": "Hay Man", "VT_PCODE": "MMR017024044", "VILLAGE": "Ngwe Taung", "VLG_PCODE": 151912.0, "VLG_MMR": "​ငွေတောင်", "ALTVLG_ENG": null, "ALTVLG_MMR": null, "Longitude": 95.4169617, "Latitude": 16.2399905, "PCODE_V": 9.6 }, "geometry": { "type": "Point", "coordinates": [ 95.4169617, 16.2399905 ] } },
{ "type": "Feature", "properties": { "ST": "Ayeyarwady", "ST_PCODE": "MMR017", "DT": "Pyapon", "DT_PCODE": "MMR017D006", "TS": "Bogale", "TS_PCODE": "MMR017024", "VT": "Hay Man", "VT_PCODE": "MMR017024044", "VILLAGE": "Ohn Pin Su", "VLG_PCODE": 151917.0, "VLG_MMR": "အုံးပင်စု", "ALTVLG_ENG": null, "ALTVLG_MMR": null, "Longitude": 95.420221, "Latitude": 16.2081533, "PCODE_V": 9.6 }, "geometry": { "type": "Point", "coordinates": [ 95.420221, 16.2081533 ] } },
{ "type": "Feature", "properties": { "ST": "Ayeyarwady", "ST_PCODE": "MMR017", "DT": "Pyapon", "DT_PCODE": "MMR017D006", "TS": "Bogale", "TS_PCODE": "MMR017024", "VT": "Hay Man", "VT_PCODE": "MMR017024044", "VILLAGE": "Pa Tet", "VLG_PCODE": 151905.0, "VLG_MMR": "ပတက်", "ALTVLG_ENG": null, "ALTVLG_MMR": null, "Longitude": 95.441995, "Latitude": 16.2299368, "PCODE_V": 9.6 }, "geometry": { "type": "Point", "coordinates": [ 95.441995, 16.2299368 ] } },
{ "type": "Feature", "properties": { "ST": "Ayeyarwady", "ST_PCODE": "MMR017", "DT": "Pyapon", "DT_PCODE": "MMR017D006", "TS": "Bogale", "TS_PCODE": "MMR017024", "VT": "Hay Man", "VT_PCODE": "MMR017024044", "VILLAGE": "Sein Pan", "VLG_PCODE": 151894.0, "VLG_MMR": "စိန်ပန်း", "ALTVLG_ENG": null, "ALTVLG_MMR": null, "Longitude": 95.4148017, "Latitude": 16.1986148, "PCODE_V": 9.6 }, "geometry": { "type": "Point", "coordinates": [ 95.4148017, 16.1986148 ] } },
{ "type": "Feature", "properties": { "ST": "Ayeyarwady", "ST_PCODE": "MMR017", "DT": "Pyapon", "DT_PCODE": "MMR017D006", "TS": "Bogale", "TS_PCODE": "MMR017024", "VT": "Hay Man", "VT_PCODE": "MMR017024044", "VILLAGE": "Tha Bawt Chaung", "VLG_PCODE": 151911.0, "VLG_MMR": "သဘော့ချောင်း", "ALTVLG_ENG": null, "ALTVLG_MMR": null, "Longitude": 95.4541432, "Latitude": 16.216576, "PCODE_V": 9.6 }, "geometry": { "type": "Point", "coordinates": [ 95.4541432, 16.216576 ] } },
{ "type": "Feature", "properties": { "ST": "Ayeyarwady", "ST_PCODE": "MMR017", "DT": "Pyapon", "DT_PCODE": "MMR017D006", "TS": "Bogale", "TS_PCODE": "MMR017024", "VT": "Hay Man", "VT_PCODE": "MMR017024044", "VILLAGE": "Thu Htay Kone", "VLG_PCODE": 151908.0, "VLG_MMR": "သူဌေးကုန်း", "ALTVLG_ENG": null, "ALTVLG_MMR": null, "Longitude": 95.4508783, "Latitude": 16.2039239, "PCODE_V": 9.6 }, "geometry": { "type": "Point", "coordinates": [ 95.4508783, 16.2039239 ] } },
{ "type": "Feature", "properties": { "ST": "Ayeyarwady", "ST_PCODE": "MMR017", "DT": "Pyapon", "DT_PCODE": "MMR017D006", "TS": "Bogale", "TS_PCODE": "MMR017024", "VT": "Hay Man", "VT_PCODE": "MMR017024044", "VILLAGE": "Za Yat Hla", "VLG_PCODE": 151909.0, "VLG_MMR": "ဇရပ်လှ", "ALTVLG_ENG": null, "ALTVLG_MMR": null, "Longitude": 95.46727753, "Latitude": 16.20212936, "PCODE_V": 9.6 }, "geometry": { "type": "Point", "coordinates": [ 95.46727753, 16.20212936 ] } },
{ "type": "Feature", "properties": { "ST": "Ayeyarwady", "ST_PCODE": "MMR017", "DT": "Pyapon", "DT_PCODE": "MMR017D006", "TS": "Bogale", "TS_PCODE": "MMR017024", "VT": "Hlwa Htaung Su", "VT_PCODE": "MMR017024007", "VILLAGE": "Hlwa Htaung Su", "VLG_PCODE": 152066.0, "VLG_MMR": "လွှထောင်စု", "ALTVLG_ENG": null, "ALTVLG_MMR": null, "Longitude": 95.6328125, "Latitude": 16.39620972, "PCODE_V": 9.6 }, "geometry": { "type": "Point", "coordinates": [ 95.6328125, 16.39620972 ] } },
{ "type": "Feature", "properties": { "ST": "Ayeyarwady", "ST_PCODE": "MMR017", "DT": "Pyapon", "DT_PCODE": "MMR017D006", "TS": "Bogale", "TS_PCODE": "MMR017024", "VT": "Hlwa Htaung Su", "VT_PCODE": "MMR017024007", "VILLAGE": "Nyan Taw Inn", "VLG_PCODE": 152068.0, "VLG_MMR": "ညံတောအင်း", "ALTVLG_ENG": null, "ALTVLG_MMR": null, "Longitude": 95.62973022, "Latitude": 16.41613007, "PCODE_V": 9.6 }, "geometry": { "type": "Point", "coordinates": [ 95.62973022, 16.41613007 ] } },
{ "type": "Feature", "properties": { "ST": "Ayeyarwady", "ST_PCODE": "MMR017", "DT": "Pyapon", "DT_PCODE": "MMR017D006", "TS": "Bogale", "TS_PCODE": "MMR017024", "VT": "Hlwa Htaung Su", "VT_PCODE": "MMR017024007", "VILLAGE": "Pein Kyaw", "VLG_PCODE": 152069.0, "VLG_MMR": "ပိန်ကျော်", "ALTVLG_ENG": null, "ALTVLG_MMR": null, "Longitude": 95.6337204, "Latitude": 16.38363075, "PCODE_V": 9.6 }, "geometry": { "type": "Point", "coordinates": [ 95.6337204, 16.38363075 ] } },
{ "type": "Feature", "properties": { "ST": "Ayeyarwady", "ST_PCODE": "MMR017", "DT": "Pyapon", "DT_PCODE": "MMR017D006", "TS": "Bogale", "TS_PCODE": "MMR017024", "VT": "Hlwa Htaung Su", "VT_PCODE": "MMR017024007", "VILLAGE": "Tu Myaung", "VLG_PCODE": 152067.0, "VLG_MMR": "တူးမြောင်း", "ALTVLG_ENG": null, "ALTVLG_MMR": null, "Longitude": 95.63144684, "Latitude": 16.40576935, "PCODE_V": 9.6 }, "geometry": { "type": "Point", "coordinates": [ 95.63144684, 16.40576935 ] } },
{ "type": "Feature", "properties": { "ST": "Ayeyarwady", "ST_PCODE": "MMR017", "DT": "Pyapon", "DT_PCODE": "MMR017D006", "TS": "Bogale", "TS_PCODE": "MMR017024", "VT": "Hpa Yar Chaung", "VT_PCODE": "MMR017024067", "VILLAGE": "Hpa Yar Chaung", "VLG_PCODE": 152279.0, "VLG_MMR": "ဘုရားချောင်း", "ALTVLG_ENG": null, "ALTVLG_MMR": null, "Longitude": 95.3931014, "Latitude": 16.2722047, "PCODE_V": 9.6 }, "geometry": { "type": "Point", "coordinates": [ 95.3931014, 16.2722047 ] } },
{ "type": "Feature", "properties": { "ST": "Ayeyarwady", "ST_PCODE": "MMR017", "DT": "Pyapon", "DT_PCODE": "MMR017D006", "TS": "Bogale", "TS_PCODE": "MMR017024", "VT": "Hpa Yar Chaung", "VT_PCODE": "MMR017024067", "VILLAGE": "Mar Yar", "VLG_PCODE": 164106.0, "VLG_MMR": "မားယား", "ALTVLG_ENG": null, "ALTVLG_MMR": null, "Longitude": 95.3988844, "Latitude": 16.2557462, "PCODE_V": 9.6 }, "geometry": { "type": "Point", "coordinates": [ 95.3988844, 16.2557462 ] } },
{ "type": "Feature", "properties": { "ST": "Ayeyarwady", "ST_PCODE": "MMR017", "DT": "Pyapon", "DT_PCODE": "MMR017D006", "TS": "Bogale", "TS_PCODE": "MMR017024", "VT": "Hpa Yar Chaung", "VT_PCODE": "MMR017024067", "VILLAGE": "Pyin Ma Kone", "VLG_PCODE": 152280.0, "VLG_MMR": "ပြင်းမကုန်း", "ALTVLG_ENG": null, "ALTVLG_MMR": null, "Longitude": 95.4138258, "Latitude": 16.2536123, "PCODE_V": 9.6 }, "geometry": { "type": "Point", "coordinates": [ 95.4138258, 16.2536123 ] } },
{ "type": "Feature", "properties": { "ST": "Ayeyarwady", "ST_PCODE": "MMR017", "DT": "Pyapon", "DT_PCODE": "MMR017D006", "TS": "Bogale", "TS_PCODE": "MMR017024", "VT": "Hpa Yar Chaung", "VT_PCODE": "MMR017024067", "VILLAGE": "Ywar Thar Aye", "VLG_PCODE": 152282.0, "VLG_MMR": "ရွာသာအေး", "ALTVLG_ENG": null, "ALTVLG_MMR": null, "Longitude": 95.407459, "Latitude": 16.263948, "PCODE_V": 9.6 }, "geometry": { "type": "Point", "coordinates": [ 95.407459, 16.263948 ] } },
{ "type": "Feature", "properties": { "ST": "Ayeyarwady", "ST_PCODE": "MMR017", "DT": "Pyapon", "DT_PCODE": "MMR017D006", "TS": "Bogale", "TS_PCODE": "MMR017024", "VT": "Hpa Yar Thone Su", "VT_PCODE": "MMR017024048", "VILLAGE": "Auk Myit Tan", "VLG_PCODE": 164107.0, "VLG_MMR": "အောက်မြစ်တန်း", "ALTVLG_ENG": null, "ALTVLG_MMR": null, "Longitude": 95.49466705, "Latitude": 16.2165699, "PCODE_V": 9.6 }, "geometry": { "type": "Point", "coordinates": [ 95.49466705, 16.2165699 ] } },
{ "type": "Feature", "properties": { "ST": "Ayeyarwady", "ST_PCODE": "MMR017", "DT": "Pyapon", "DT_PCODE": "MMR017D006", "TS": "Bogale", "TS_PCODE": "MMR017024", "VT": "Hpa Yar Thone Su", "VT_PCODE": "MMR017024048", "VILLAGE": "Hpa Yar Thone Su", "VLG_PCODE": 152413.0, "VLG_MMR": "ဘုရားသုံးဆူ", "ALTVLG_ENG": null, "ALTVLG_MMR": null, "Longitude": 95.5013504, "Latitude": 16.21581078, "PCODE_V": 9.6 }, "geometry": { "type": "Point", "coordinates": [ 95.5013504, 16.21581078 ] } },
{ "type": "Feature", "properties": { "ST": "Ayeyarwady", "ST_PCODE": "MMR017", "DT": "Pyapon", "DT_PCODE": "MMR017D006", "TS": "Bogale", "TS_PCODE": "MMR017024", "VT": "Hpa Yar Thone Su", "VT_PCODE": "MMR017024048", "VILLAGE": "Ka Tha Paung", "VLG_PCODE": 164109.0, "VLG_MMR": "ကသပေါင်း", "ALTVLG_ENG": null, "ALTVLG_MMR": null, "Longitude": 95.51605988, "Latitude": 16.21495056, "PCODE_V": 9.6 }, "geometry": { "type": "Point", "coordinates": [ 95.51605988, 16.21495056 ] } },
{ "type": "Feature", "properties": { "ST": "Ayeyarwady", "ST_PCODE": "MMR017", "DT": "Pyapon", "DT_PCODE": "MMR017D006", "TS": "Bogale", "TS_PCODE": "MMR017024", "VT": "Hpa Yar Thone Su", "VT_PCODE": "MMR017024048", "VILLAGE": "Moke Soe Chaung", "VLG_PCODE": 152418.0, "VLG_MMR": "မုဆိုးချောင်း", "ALTVLG_ENG": null, "ALTVLG_MMR": null, "Longitude": 95.51405334, "Latitude": 16.22282982, "PCODE_V": 9.6 }, "geometry": { "type": "Point", "coordinates": [ 95.51405334, 16.22282982 ] } },
{ "type": "Feature", "properties": { "ST": "Ayeyarwady", "ST_PCODE": "MMR017", "DT": "Pyapon", "DT_PCODE": "MMR017D006", "TS": "Bogale", "TS_PCODE": "MMR017024", "VT": "Hpa Yar Thone Su", "VT_PCODE": "MMR017024048", "VILLAGE": "Myit Tan", "VLG_PCODE": 152416.0, "VLG_MMR": "မြစ်တန်း", "ALTVLG_ENG": null, "ALTVLG_MMR": null, "Longitude": 95.48847198, "Latitude": 16.21583939, "PCODE_V": 9.6 }, "geometry": { "type": "Point", "coordinates": [ 95.48847198, 16.21583939 ] } },
{ "type": "Feature", "properties": { "ST": "Ayeyarwady", "ST_PCODE": "MMR017", "DT": "Pyapon", "DT_PCODE": "MMR017D006", "TS": "Bogale", "TS_PCODE": "MMR017024", "VT": "Hpa Yar Thone Su", "VT_PCODE": "MMR017024048", "VILLAGE": "Tha Byu", "VLG_PCODE": 152415.0, "VLG_MMR": "သဗြု", "ALTVLG_ENG": null, "ALTVLG_MMR": null, "Longitude": 95.5025177, "Latitude": 16.22743034, "PCODE_V": 9.6 }, "geometry": { "type": "Point", "coordinates": [ 95.5025177, 16.22743034 ] } },
{ "type": "Feature", "properties": { "ST": "Ayeyarwady", "ST_PCODE": "MMR017", "DT": "Pyapon", "DT_PCODE": "MMR017D006", "TS": "Bogale", "TS_PCODE": "MMR017024", "VT": "Hpa Yar Thone Su", "VT_PCODE": "MMR017024048", "VILLAGE": "Tha Pyay Kone", "VLG_PCODE": 152414.0, "VLG_MMR": "သပြေကုန်း", "ALTVLG_ENG": null, "ALTVLG_MMR": null, "Longitude": 95.51286316, "Latitude": 16.21178055, "PCODE_V": 9.6 }, "geometry": { "type": "Point", "coordinates": [ 95.51286316, 16.21178055 ] } },
{ "type": "Feature", "properties": { "ST": "Ayeyarwady", "ST_PCODE": "MMR017", "DT": "Pyapon", "DT_PCODE": "MMR017D006", "TS": "Bogale", "TS_PCODE": "MMR017024", "VT": "Hpa Yar Thone Su", "VT_PCODE": "MMR017024048", "VILLAGE": "U To", "VLG_PCODE": 152419.0, "VLG_MMR": "ဥတို", "ALTVLG_ENG": null, "ALTVLG_MMR": null, "Longitude": 95.4816594, "Latitude": 16.2204047, "PCODE_V": 9.6 }, "geometry": { "type": "Point", "coordinates": [ 95.4816594, 16.2204047 ] } },
{ "type": "Feature", "properties": { "ST": "Ayeyarwady", "ST_PCODE": "MMR017", "DT": "Pyapon", "DT_PCODE": "MMR017D006", "TS": "Bogale", "TS_PCODE": "MMR017024", "VT": "Hpoe Lay", "VT_PCODE": "MMR017024050", "VILLAGE": "Hpoe Lay", "VLG_PCODE": 152496.0, "VLG_MMR": "ဖိုးလေး", "ALTVLG_ENG": null, "ALTVLG_MMR": null, "Longitude": 95.52571869000001, "Latitude": 16.18947029, "PCODE_V": 9.6 }, "geometry": { "type": "Point", "coordinates": [ 95.52571869, 16.18947029 ] } },
{ "type": "Feature", "properties": { "ST": "Ayeyarwady", "ST_PCODE": "MMR017", "DT": "Pyapon", "DT_PCODE": "MMR017D006", "TS": "Bogale", "TS_PCODE": "MMR017024", "VT": "Hpoe Lay", "VT_PCODE": "MMR017024050", "VILLAGE": "Kayin Su", "VLG_PCODE": 152499.0, "VLG_MMR": "ကရင်စု", "ALTVLG_ENG": null, "ALTVLG_MMR": null, "Longitude": 95.538521, "Latitude": 16.184999, "PCODE_V": 9.6 }, "geometry": { "type": "Point", "coordinates": [ 95.538521, 16.184999 ] } },
{ "type": "Feature", "properties": { "ST": "Ayeyarwady", "ST_PCODE": "MMR017", "DT": "Pyapon", "DT_PCODE": "MMR017D006", "TS": "Bogale", "TS_PCODE": "MMR017024", "VT": "Hpoe Lay", "VT_PCODE": "MMR017024050", "VILLAGE": "Tha Yet Pin Seik", "VLG_PCODE": 152497.0, "VLG_MMR": "သရက်ပင်ဆိပ်", "ALTVLG_ENG": null, "ALTVLG_MMR": null, "Longitude": 95.532837, "Latitude": 16.176001, "PCODE_V": 9.6 }, "geometry": { "type": "Point", "coordinates": [ 95.532837, 16.176001 ] } },
{ "type": "Feature", "properties": { "ST": "Ayeyarwady", "ST_PCODE": "MMR017", "DT": "Pyapon", "DT_PCODE": "MMR017D006", "TS": "Bogale", "TS_PCODE": "MMR017024", "VT": "Hpoe Lay", "VT_PCODE": "MMR017024050", "VILLAGE": "Thein Ni", "VLG_PCODE": 152498.0, "VLG_MMR": "သိန်နီ", "ALTVLG_ENG": null, "ALTVLG_MMR": null, "Longitude": 95.54598236, "Latitude": 16.20545006, "PCODE_V": 9.6 }, "geometry": { "type": "Point", "coordinates": [ 95.54598236, 16.20545006 ] } },
{ "type": "Feature", "properties": { "ST": "Ayeyarwady", "ST_PCODE": "MMR017", "DT": "Pyapon", "DT_PCODE": "MMR017D006", "TS": "Bogale", "TS_PCODE": "MMR017024", "VT": "Htaw Paing", "VT_PCODE": "MMR017024072", "VILLAGE": "Aye Chan Thar Yar", "VLG_PCODE": 164156.0, "VLG_MMR": "အေးချမ်းသာယာ", "ALTVLG_ENG": null, "ALTVLG_MMR": null, "Longitude": 95.42842102, "Latitude": 15.96253014, "PCODE_V": 9.6 }, "geometry": { "type": "Point", "coordinates": [ 95.42842102, 15.96253014 ] } },
{ "type": "Feature", "properties": { "ST": "Ayeyarwady", "ST_PCODE": "MMR017", "DT": "Pyapon", "DT_PCODE": "MMR017D006", "TS": "Bogale", "TS_PCODE": "MMR017024", "VT": "Htaw Paing", "VT_PCODE": "MMR017024072", "VILLAGE": "Byaing Chaung", "VLG_PCODE": 160120.0, "VLG_MMR": "ဗျိုင်းချောင်း", "ALTVLG_ENG": null, "ALTVLG_MMR": null, "Longitude": 95.3749452, "Latitude": 15.9251513, "PCODE_V": 9.6 }, "geometry": { "type": "Point", "coordinates": [ 95.3749452, 15.9251513 ] } },
{ "type": "Feature", "properties": { "ST": "Ayeyarwady", "ST_PCODE": "MMR017", "DT": "Pyapon", "DT_PCODE": "MMR017D006", "TS": "Bogale", "TS_PCODE": "MMR017024", "VT": "Htaw Paing", "VT_PCODE": "MMR017024072", "VILLAGE": "Chaung Ta Shey", "VLG_PCODE": 216730.0, "VLG_MMR": "ချောင်းတံရှည်", "ALTVLG_ENG": null, "ALTVLG_MMR": null, "Longitude": 95.3913991, "Latitude": 15.8783716, "PCODE_V": 9.6 }, "geometry": { "type": "Point", "coordinates": [ 95.3913991, 15.8783716 ] } },
{ "type": "Feature", "properties": { "ST": "Ayeyarwady", "ST_PCODE": "MMR017", "DT": "Pyapon", "DT_PCODE": "MMR017D006", "TS": "Bogale", "TS_PCODE": "MMR017024", "VT": "Htaw Paing", "VT_PCODE": "MMR017024072", "VILLAGE": "Htaw Paing", "VLG_PCODE": 160134.0, "VLG_MMR": "ထော်ပိုင်", "ALTVLG_ENG": null, "ALTVLG_MMR": null, "Longitude": 95.35822296000001, "Latitude": 15.95139027, "PCODE_V": 9.6 }, "geometry": { "type": "Point", "coordinates": [ 95.35822296, 15.95139027 ] } },
{ "type": "Feature", "properties": { "ST": "Ayeyarwady", "ST_PCODE": "MMR017", "DT": "Pyapon", "DT_PCODE": "MMR017D006", "TS": "Bogale", "TS_PCODE": "MMR017024", "VT": "Htaw Paing", "VT_PCODE": "MMR017024072", "VILLAGE": "Kha Min Naung", "VLG_PCODE": 164158.0, "VLG_MMR": "ခမင်းနောင်", "ALTVLG_ENG": null, "ALTVLG_MMR": null, "Longitude": 95.3254662, "Latitude": 15.9147941, "PCODE_V": 9.6 }, "geometry": { "type": "Point", "coordinates": [ 95.3254662, 15.9147941 ] } },
{ "type": "Feature", "properties": { "ST": "Ayeyarwady", "ST_PCODE": "MMR017", "DT": "Pyapon", "DT_PCODE": "MMR017D006", "TS": "Bogale", "TS_PCODE": "MMR017024", "VT": "Htaw Paing", "VT_PCODE": "MMR017024072", "VILLAGE": "Kwin Thar Yar", "VLG_PCODE": 216731.0, "VLG_MMR": "ကွင်းသာယာ", "ALTVLG_ENG": null, "ALTVLG_MMR": null, "Longitude": 95.41098022, "Latitude": 15.99641991, "PCODE_V": 9.6 }, "geometry": { "type": "Point", "coordinates": [ 95.41098022, 15.99641991 ] } },
{ "type": "Feature", "properties": { "ST": "Ayeyarwady", "ST_PCODE": "MMR017", "DT": "Pyapon", "DT_PCODE": "MMR017D006", "TS": "Bogale", "TS_PCODE": "MMR017024", "VT": "Htaw Paing", "VT_PCODE": "MMR017024072", "VILLAGE": "Kyet Hpyu Chaung", "VLG_PCODE": 164160.0, "VLG_MMR": "ကြက်ဖြူချောင်း", "ALTVLG_ENG": null, "ALTVLG_MMR": null, "Longitude": 95.42037964, "Latitude": 15.93560982, "PCODE_V": 9.6 }, "geometry": { "type": "Point", "coordinates": [ 95.42037964, 15.93560982 ] } },
{ "type": "Feature", "properties": { "ST": "Ayeyarwady", "ST_PCODE": "MMR017", "DT": "Pyapon", "DT_PCODE": "MMR017D006", "TS": "Bogale", "TS_PCODE": "MMR017024", "VT": "Htaw Paing", "VT_PCODE": "MMR017024072", "VILLAGE": "La Mu Oke", "VLG_PCODE": 217807.0, "VLG_MMR": "လမုအုပ်", "ALTVLG_ENG": null, "ALTVLG_MMR": null, "Longitude": 95.40616349, "Latitude": 15.90676922, "PCODE_V": 9.6 }, "geometry": { "type": "Point", "coordinates": [ 95.40616349, 15.90676922 ] } },
{ "type": "Feature", "properties": { "ST": "Ayeyarwady", "ST_PCODE": "MMR017", "DT": "Pyapon", "DT_PCODE": "MMR017D006", "TS": "Bogale", "TS_PCODE": "MMR017024", "VT": "Htaw Paing", "VT_PCODE": "MMR017024072", "VILLAGE": "Shwe Pyi Thar", "VLG_PCODE": 216727.0, "VLG_MMR": "ရွှေပြည်သာ", "ALTVLG_ENG": null, "ALTVLG_MMR": null, "Longitude": 95.35822296000001, "Latitude": 15.95139027, "PCODE_V": 9.6 }, "geometry": { "type": "Point", "coordinates": [ 95.35822296, 15.95139027 ] } },
{ "type": "Feature", "properties": { "ST": "Ayeyarwady", "ST_PCODE": "MMR017", "DT": "Pyapon", "DT_PCODE": "MMR017D006", "TS": "Bogale", "TS_PCODE": "MMR017024", "VT": "Htaw Paing", "VT_PCODE": "MMR017024072", "VILLAGE": "Taik Sein Kone", "VLG_PCODE": 164164.0, "VLG_MMR": "တိုက်စိမ်းကုန်း", "ALTVLG_ENG": null, "ALTVLG_MMR": null, "Longitude": 95.3641925, "Latitude": 15.9356832, "PCODE_V": 9.6 }, "geometry": { "type": "Point", "coordinates": [ 95.3641925, 15.9356832 ] } },
{ "type": "Feature", "properties": { "ST": "Ayeyarwady", "ST_PCODE": "MMR017", "DT": "Pyapon", "DT_PCODE": "MMR017D006", "TS": "Bogale", "TS_PCODE": "MMR017024", "VT": "Htaw Paing", "VT_PCODE": "MMR017024072", "VILLAGE": "Taung Yar Chaung", "VLG_PCODE": 164165.0, "VLG_MMR": "တောင်ယာချောင်း", "ALTVLG_ENG": null, "ALTVLG_MMR": null, "Longitude": 95.3821937, "Latitude": 15.9228075, "PCODE_V": 9.6 }, "geometry": { "type": "Point", "coordinates": [ 95.3821937, 15.9228075 ] } },
{ "type": "Feature", "properties": { "ST": "Ayeyarwady", "ST_PCODE": "MMR017", "DT": "Pyapon", "DT_PCODE": "MMR017D006", "TS": "Bogale", "TS_PCODE": "MMR017024", "VT": "Htaw Paing", "VT_PCODE": "MMR017024072", "VILLAGE": "Tha Pyay Chaung", "VLG_PCODE": 164169.0, "VLG_MMR": "သပြေချောင်း", "ALTVLG_ENG": null, "ALTVLG_MMR": null, "Longitude": 95.3747184, "Latitude": 15.9409708, "PCODE_V": 9.6 }, "geometry": { "type": "Point", "coordinates": [ 95.3747184, 15.9409708 ] } },
{ "type": "Feature", "properties": { "ST": "Ayeyarwady", "ST_PCODE": "MMR017", "DT": "Pyapon", "DT_PCODE": "MMR017D006", "TS": "Bogale", "TS_PCODE": "MMR017024", "VT": "Htaw Paing", "VT_PCODE": "MMR017024072", "VILLAGE": "U To", "VLG_PCODE": 164170.0, "VLG_MMR": "ဥတို", "ALTVLG_ENG": null, "ALTVLG_MMR": null, "Longitude": 95.4059642, "Latitude": 15.9246055, "PCODE_V": 9.6 }, "geometry": { "type": "Point", "coordinates": [ 95.4059642, 15.9246055 ] } },
{ "type": "Feature", "properties": { "ST": "Ayeyarwady", "ST_PCODE": "MMR017", "DT": "Pyapon", "DT_PCODE": "MMR017D006", "TS": "Bogale", "TS_PCODE": "MMR017024", "VT": "Htaw Paing", "VT_PCODE": "MMR017024072", "VILLAGE": "Wea Chaung", "VLG_PCODE": 217808.0, "VLG_MMR": "ဝဲချောင်း", "ALTVLG_ENG": null, "ALTVLG_MMR": null, "Longitude": 95.37110138, "Latitude": 15.88593006, "PCODE_V": 9.6 }, "geometry": { "type": "Point", "coordinates": [ 95.37110138, 15.88593006 ] } },
{ "type": "Feature", "properties": { "ST": "Ayeyarwady", "ST_PCODE": "MMR017", "DT": "Pyapon", "DT_PCODE": "MMR017D006", "TS": "Bogale", "TS_PCODE": "MMR017024", "VT": "Htaw Paing", "VT_PCODE": "MMR017024072", "VILLAGE": "Yway Chaung", "VLG_PCODE": 218744.0, "VLG_MMR": "ရွေးချောင်း", "ALTVLG_ENG": null, "ALTVLG_MMR": null, "Longitude": 95.3059038, "Latitude": 15.8966962, "PCODE_V": 9.6 }, "geometry": { "type": "Point", "coordinates": [ 95.3059038, 15.8966962 ] } },
{ "type": "Feature", "properties": { "ST": "Ayeyarwady", "ST_PCODE": "MMR017", "DT": "Pyapon", "DT_PCODE": "MMR017D006", "TS": "Bogale", "TS_PCODE": "MMR017024", "VT": "Ka Don Ka Ni", "VT_PCODE": "MMR017024071", "VILLAGE": "Aing Gyi Kwin", "VLG_PCODE": 153204.0, "VLG_MMR": "အိုင်းကြီးကွင်း", "ALTVLG_ENG": null, "ALTVLG_MMR": null, "Longitude": 95.19847107, "Latitude": 15.79874992, "PCODE_V": 9.6 }, "geometry": { "type": "Point", "coordinates": [ 95.19847107, 15.79874992 ] } },
{ "type": "Feature", "properties": { "ST": "Ayeyarwady", "ST_PCODE": "MMR017", "DT": "Pyapon", "DT_PCODE": "MMR017D006", "TS": "Bogale", "TS_PCODE": "MMR017024", "VT": "Ka Don Ka Ni", "VT_PCODE": "MMR017024071", "VILLAGE": "Da Ni Chaung", "VLG_PCODE": 153208.0, "VLG_MMR": "ဓနိချောင်း", "ALTVLG_ENG": null, "ALTVLG_MMR": null, "Longitude": 95.2090683, "Latitude": 15.84864044, "PCODE_V": 9.6 }, "geometry": { "type": "Point", "coordinates": [ 95.2090683, 15.84864044 ] } },
{ "type": "Feature", "properties": { "ST": "Ayeyarwady", "ST_PCODE": "MMR017", "DT": "Pyapon", "DT_PCODE": "MMR017D006", "TS": "Bogale", "TS_PCODE": "MMR017024", "VT": "Ka Don Ka Ni", "VT_PCODE": "MMR017024071", "VILLAGE": "Gway Chaung", "VLG_PCODE": 153196.0, "VLG_MMR": "ဂွေးချောင်း", "ALTVLG_ENG": null, "ALTVLG_MMR": null, "Longitude": 95.21424866, "Latitude": 15.82808018, "PCODE_V": 9.6 }, "geometry": { "type": "Point", "coordinates": [ 95.21424866, 15.82808018 ] } },
{ "type": "Feature", "properties": { "ST": "Ayeyarwady", "ST_PCODE": "MMR017", "DT": "Pyapon", "DT_PCODE": "MMR017D006", "TS": "Bogale", "TS_PCODE": "MMR017024", "VT": "Ka Don Ka Ni", "VT_PCODE": "MMR017024071", "VILLAGE": "Ka Don Ka Ni", "VLG_PCODE": 153195.0, "VLG_MMR": "ကဒုံကနိ", "ALTVLG_ENG": null, "ALTVLG_MMR": null, "Longitude": 95.21549225, "Latitude": 15.8200798, "PCODE_V": 9.6 }, "geometry": { "type": "Point", "coordinates": [ 95.21549225, 15.8200798 ] } },
{ "type": "Feature", "properties": { "ST": "Ayeyarwady", "ST_PCODE": "MMR017", "DT": "Pyapon", "DT_PCODE": "MMR017D006", "TS": "Bogale", "TS_PCODE": "MMR017024", "VT": "Ka Don Ka Ni", "VT_PCODE": "MMR017024071", "VILLAGE": "Kwin Yar", "VLG_PCODE": 153200.0, "VLG_MMR": "ကွင်းယား", "ALTVLG_ENG": null, "ALTVLG_MMR": null, "Longitude": 95.20378113, "Latitude": 15.79030991, "PCODE_V": 9.6 }, "geometry": { "type": "Point", "coordinates": [ 95.20378113, 15.79030991 ] } },
{ "type": "Feature", "properties": { "ST": "Ayeyarwady", "ST_PCODE": "MMR017", "DT": "Pyapon", "DT_PCODE": "MMR017D006", "TS": "Bogale", "TS_PCODE": "MMR017024", "VT": "Ka Don Ka Ni", "VT_PCODE": "MMR017024071", "VILLAGE": "Kyein Chaung Hpyar", "VLG_PCODE": 153206.0, "VLG_MMR": "ကြိမ်ချောင်းဖျား", "ALTVLG_ENG": null, "ALTVLG_MMR": null, "Longitude": 95.2008667, "Latitude": 15.82567978, "PCODE_V": 9.6 }, "geometry": { "type": "Point", "coordinates": [ 95.2008667, 15.82567978 ] } },
{ "type": "Feature", "properties": { "ST": "Ayeyarwady", "ST_PCODE": "MMR017", "DT": "Pyapon", "DT_PCODE": "MMR017D006", "TS": "Bogale", "TS_PCODE": "MMR017024", "VT": "Ka Don Ka Ni", "VT_PCODE": "MMR017024071", "VILLAGE": "Kyun Thar Yar", "VLG_PCODE": 153203.0, "VLG_MMR": "ကျွန်းသာယာ", "ALTVLG_ENG": null, "ALTVLG_MMR": null, "Longitude": 95.2173233, "Latitude": 15.80091953, "PCODE_V": 9.6 }, "geometry": { "type": "Point", "coordinates": [ 95.2173233, 15.80091953 ] } },
{ "type": "Feature", "properties": { "ST": "Ayeyarwady", "ST_PCODE": "MMR017", "DT": "Pyapon", "DT_PCODE": "MMR017D006", "TS": "Bogale", "TS_PCODE": "MMR017024", "VT": "Ka Don Ka Ni", "VT_PCODE": "MMR017024071", "VILLAGE": "Kywe Hpyu", "VLG_PCODE": 153209.0, "VLG_MMR": "ကျွဲဖြူ", "ALTVLG_ENG": null, "ALTVLG_MMR": null, "Longitude": 95.154762, "Latitude": 15.78105, "PCODE_V": 9.6 }, "geometry": { "type": "Point", "coordinates": [ 95.154762, 15.78105 ] } },
{ "type": "Feature", "properties": { "ST": "Ayeyarwady", "ST_PCODE": "MMR017", "DT": "Pyapon", "DT_PCODE": "MMR017D006", "TS": "Bogale", "TS_PCODE": "MMR017024", "VT": "Ka Don Ka Ni", "VT_PCODE": "MMR017024071", "VILLAGE": "Leik Thaung Yae Kyaw", "VLG_PCODE": 153205.0, "VLG_MMR": "လိပ်သောင်ရေကျော်", "ALTVLG_ENG": null, "ALTVLG_MMR": null, "Longitude": 95.19922638, "Latitude": 15.81042004, "PCODE_V": 9.6 }, "geometry": { "type": "Point", "coordinates": [ 95.19922638, 15.81042004 ] } },
{ "type": "Feature", "properties": { "ST": "Ayeyarwady", "ST_PCODE": "MMR017", "DT": "Pyapon", "DT_PCODE": "MMR017D006", "TS": "Bogale", "TS_PCODE": "MMR017024", "VT": "Ka Don Ka Ni", "VT_PCODE": "MMR017024071", "VILLAGE": "Ma Yan Chaung", "VLG_PCODE": 153202.0, "VLG_MMR": "မရမ်းချောင်း", "ALTVLG_ENG": null, "ALTVLG_MMR": null, "Longitude": 95.21237183, "Latitude": 15.83848953, "PCODE_V": 9.6 }, "geometry": { "type": "Point", "coordinates": [ 95.21237183, 15.83848953 ] } },
{ "type": "Feature", "properties": { "ST": "Ayeyarwady", "ST_PCODE": "MMR017", "DT": "Pyapon", "DT_PCODE": "MMR017D006", "TS": "Bogale", "TS_PCODE": "MMR017024", "VT": "Ka Don Ka Ni", "VT_PCODE": "MMR017024071", "VILLAGE": "Moe Lauk Kone", "VLG_PCODE": 153199.0, "VLG_MMR": "မိုးလောက်ကုန်း", "ALTVLG_ENG": null, "ALTVLG_MMR": null, "Longitude": 95.21005249, "Latitude": 15.80496979, "PCODE_V": 9.6 }, "geometry": { "type": "Point", "coordinates": [ 95.21005249, 15.80496979 ] } },
{ "type": "Feature", "properties": { "ST": "Ayeyarwady", "ST_PCODE": "MMR017", "DT": "Pyapon", "DT_PCODE": "MMR017D006", "TS": "Bogale", "TS_PCODE": "MMR017024", "VT": "Ka Don Ka Ni", "VT_PCODE": "MMR017024071", "VILLAGE": "Shwe Sar Yan", "VLG_PCODE": 153198.0, "VLG_MMR": "ရွှေစာရံ", "ALTVLG_ENG": null, "ALTVLG_MMR": null, "Longitude": 95.21933746000001, "Latitude": 15.80541992, "PCODE_V": 9.6 }, "geometry": { "type": "Point", "coordinates": [ 95.21933746, 15.80541992 ] } },
{ "type": "Feature", "properties": { "ST": "Ayeyarwady", "ST_PCODE": "MMR017", "DT": "Pyapon", "DT_PCODE": "MMR017D006", "TS": "Bogale", "TS_PCODE": "MMR017024", "VT": "Ka Don Ka Ni", "VT_PCODE": "MMR017024071", "VILLAGE": "Yae Kyaw Gyi (Yae Kyaw Gyi (East))", "VLG_PCODE": 153207.0, "VLG_MMR": "ရေကျော်ကြီး (ရေကျော်ကြီး (ရှေ့))", "ALTVLG_ENG": null, "ALTVLG_MMR": null, "Longitude": 95.19805908, "Latitude": 15.86102009, "PCODE_V": 9.6 }, "geometry": { "type": "Point", "coordinates": [ 95.19805908, 15.86102009 ] } },
{ "type": "Feature", "properties": { "ST": "Ayeyarwady", "ST_PCODE": "MMR017", "DT": "Pyapon", "DT_PCODE": "MMR017D006", "TS": "Bogale", "TS_PCODE": "MMR017024", "VT": "Ka Don Ka Ni", "VT_PCODE": "MMR017024071", "VILLAGE": "Ywar Ka Lay", "VLG_PCODE": 153197.0, "VLG_MMR": "ရွာကလေး", "ALTVLG_ENG": null, "ALTVLG_MMR": null, "Longitude": 95.2117691, "Latitude": 15.81239986, "PCODE_V": 9.6 }, "geometry": { "type": "Point", "coordinates": [ 95.2117691, 15.81239986 ] } },
{ "type": "Feature", "properties": { "ST": "Ayeyarwady", "ST_PCODE": "MMR017", "DT": "Pyapon", "DT_PCODE": "MMR017D006", "TS": "Bogale", "TS_PCODE": "MMR017024", "VT": "Ka Don Ka Ni", "VT_PCODE": "MMR017024071", "VILLAGE": "Zee Hpyu Kwin", "VLG_PCODE": 153201.0, "VLG_MMR": "ဇီးဖြူကွင်း", "ALTVLG_ENG": null, "ALTVLG_MMR": null, "Longitude": 95.19306946, "Latitude": 15.79916954, "PCODE_V": 9.6 }, "geometry": { "type": "Point", "coordinates": [ 95.19306946, 15.79916954 ] } },
{ "type": "Feature", "properties": { "ST": "Ayeyarwady", "ST_PCODE": "MMR017", "DT": "Pyapon", "DT_PCODE": "MMR017D006", "TS": "Bogale", "TS_PCODE": "MMR017024", "VT": "Ka Ma Ka Lu", "VT_PCODE": "MMR017024059", "VILLAGE": "12 Ka Zaung Yoe", "VLG_PCODE": 220882.0, "VLG_MMR": "၁၂ ကဇောင်းရိုး", "ALTVLG_ENG": null, "ALTVLG_MMR": null, "Longitude": 95.49950761, "Latitude": 16.13736731, "PCODE_V": 9.6 }, "geometry": { "type": "Point", "coordinates": [ 95.49950761, 16.13736731 ] } },
{ "type": "Feature", "properties": { "ST": "Ayeyarwady", "ST_PCODE": "MMR017", "DT": "Pyapon", "DT_PCODE": "MMR017D006", "TS": "Bogale", "TS_PCODE": "MMR017024", "VT": "Ka Ma Ka Lu", "VT_PCODE": "MMR017024059", "VILLAGE": "12 Taung Yoe", "VLG_PCODE": 220881.0, "VLG_MMR": "၁၂ တောင်ရိုး", "ALTVLG_ENG": null, "ALTVLG_MMR": null, "Longitude": 95.50312, "Latitude": 16.15284, "PCODE_V": 9.6 }, "geometry": { "type": "Point", "coordinates": [ 95.50312, 16.15284 ] } },
{ "type": "Feature", "properties": { "ST": "Ayeyarwady", "ST_PCODE": "MMR017", "DT": "Pyapon", "DT_PCODE": "MMR017D006", "TS": "Bogale", "TS_PCODE": "MMR017024", "VT": "Ka Ma Ka Lu", "VT_PCODE": "MMR017024059", "VILLAGE": "Ka Ma Ka Lu", "VLG_PCODE": 153276.0, "VLG_MMR": "ကမကလူ", "ALTVLG_ENG": null, "ALTVLG_MMR": null, "Longitude": 95.48370361000001, "Latitude": 16.14365005, "PCODE_V": 9.6 }, "geometry": { "type": "Point", "coordinates": [ 95.48370361, 16.14365005 ] } },
{ "type": "Feature", "properties": { "ST": "Ayeyarwady", "ST_PCODE": "MMR017", "DT": "Pyapon", "DT_PCODE": "MMR017D006", "TS": "Bogale", "TS_PCODE": "MMR017024", "VT": "Ka Ma Ka Lu", "VT_PCODE": "MMR017024059", "VILLAGE": "Ma Ngeit Gyi", "VLG_PCODE": 153277.0, "VLG_MMR": "မငဲ့ကြီး", "ALTVLG_ENG": null, "ALTVLG_MMR": null, "Longitude": 95.46897125, "Latitude": 16.11175919, "PCODE_V": 9.6 }, "geometry": { "type": "Point", "coordinates": [ 95.46897125, 16.11175919 ] } },
{ "type": "Feature", "properties": { "ST": "Ayeyarwady", "ST_PCODE": "MMR017", "DT": "Pyapon", "DT_PCODE": "MMR017D006", "TS": "Bogale", "TS_PCODE": "MMR017024", "VT": "Ka Ma Ka Lu", "VT_PCODE": "MMR017024059", "VILLAGE": "Oke Kyut", "VLG_PCODE": 153278.0, "VLG_MMR": "အုတ်ကျွတ်", "ALTVLG_ENG": null, "ALTVLG_MMR": null, "Longitude": 95.48168945, "Latitude": 16.13475037, "PCODE_V": 9.6 }, "geometry": { "type": "Point", "coordinates": [ 95.48168945, 16.13475037 ] } },
{ "type": "Feature", "properties": { "ST": "Ayeyarwady", "ST_PCODE": "MMR017", "DT": "Pyapon", "DT_PCODE": "MMR017D006", "TS": "Bogale", "TS_PCODE": "MMR017024", "VT": "Kan Gyi", "VT_PCODE": "MMR017024004", "VILLAGE": "Kan Gyi", "VLG_PCODE": 153840.0, "VLG_MMR": "ကမ်းကြီး", "ALTVLG_ENG": null, "ALTVLG_MMR": null, "Longitude": 95.57093048, "Latitude": 16.3696804, "PCODE_V": 9.6 }, "geometry": { "type": "Point", "coordinates": [ 95.57093048, 16.3696804 ] } },
{ "type": "Feature", "properties": { "ST": "Ayeyarwady", "ST_PCODE": "MMR017", "DT": "Pyapon", "DT_PCODE": "MMR017D006", "TS": "Bogale", "TS_PCODE": "MMR017024", "VT": "Kan Gyi", "VT_PCODE": "MMR017024004", "VILLAGE": "Thit Hpyu Chaung", "VLG_PCODE": 153842.0, "VLG_MMR": "သစ်ဖြူချောင်း", "ALTVLG_ENG": null, "ALTVLG_MMR": null, "Longitude": 95.58339691, "Latitude": 16.37545967, "PCODE_V": 9.6 }, "geometry": { "type": "Point", "coordinates": [ 95.58339691, 16.37545967 ] } },
{ "type": "Feature", "properties": { "ST": "Ayeyarwady", "ST_PCODE": "MMR017", "DT": "Pyapon", "DT_PCODE": "MMR017D006", "TS": "Bogale", "TS_PCODE": "MMR017024", "VT": "Kan Su (East)", "VT_PCODE": "MMR017024002", "VILLAGE": "Boe Kone", "VLG_PCODE": 153966.0, "VLG_MMR": "ဘိုးကုန်း", "ALTVLG_ENG": null, "ALTVLG_MMR": null, "Longitude": 95.53894806, "Latitude": 16.38829041, "PCODE_V": 9.6 }, "geometry": { "type": "Point", "coordinates": [ 95.53894806, 16.38829041 ] } },
{ "type": "Feature", "properties": { "ST": "Ayeyarwady", "ST_PCODE": "MMR017", "DT": "Pyapon", "DT_PCODE": "MMR017D006", "TS": "Bogale", "TS_PCODE": "MMR017024", "VT": "Kan Su (East)", "VT_PCODE": "MMR017024002", "VILLAGE": "Kan Su (East)", "VLG_PCODE": 153965.0, "VLG_MMR": "ကံစု (အရှေ့)", "ALTVLG_ENG": null, "ALTVLG_MMR": null, "Longitude": 95.53334045, "Latitude": 16.36631966, "PCODE_V": 9.6 }, "geometry": { "type": "Point", "coordinates": [ 95.53334045, 16.36631966 ] } },
{ "type": "Feature", "properties": { "ST": "Ayeyarwady", "ST_PCODE": "MMR017", "DT": "Pyapon", "DT_PCODE": "MMR017D006", "TS": "Bogale", "TS_PCODE": "MMR017024", "VT": "Kan Su (East)", "VT_PCODE": "MMR017024002", "VILLAGE": "Kwet Thit", "VLG_PCODE": 164110.0, "VLG_MMR": "ကွက်သစ်", "ALTVLG_ENG": null, "ALTVLG_MMR": null, "Longitude": 95.53614807, "Latitude": 16.38328934, "PCODE_V": 9.6 }, "geometry": { "type": "Point", "coordinates": [ 95.53614807, 16.38328934 ] } },
{ "type": "Feature", "properties": { "ST": "Ayeyarwady", "ST_PCODE": "MMR017", "DT": "Pyapon", "DT_PCODE": "MMR017D006", "TS": "Bogale", "TS_PCODE": "MMR017024", "VT": "Kan Su (East)", "VT_PCODE": "MMR017024002", "VILLAGE": "Kyaung Su", "VLG_PCODE": 153969.0, "VLG_MMR": "ကျောင်းစု", "ALTVLG_ENG": null, "ALTVLG_MMR": null, "Longitude": 95.52953339, "Latitude": 16.36380005, "PCODE_V": 9.6 }, "geometry": { "type": "Point", "coordinates": [ 95.52953339, 16.36380005 ] } },
{ "type": "Feature", "properties": { "ST": "Ayeyarwady", "ST_PCODE": "MMR017", "DT": "Pyapon", "DT_PCODE": "MMR017D006", "TS": "Bogale", "TS_PCODE": "MMR017024", "VT": "Kan Su (East)", "VT_PCODE": "MMR017024002", "VILLAGE": "Ma Yan", "VLG_PCODE": 153968.0, "VLG_MMR": "မရမ်း", "ALTVLG_ENG": null, "ALTVLG_MMR": null, "Longitude": 95.53988647, "Latitude": 16.37142944, "PCODE_V": 9.6 }, "geometry": { "type": "Point", "coordinates": [ 95.53988647, 16.37142944 ] } },
{ "type": "Feature", "properties": { "ST": "Ayeyarwady", "ST_PCODE": "MMR017", "DT": "Pyapon", "DT_PCODE": "MMR017D006", "TS": "Bogale", "TS_PCODE": "MMR017024", "VT": "Kan Su (East)", "VT_PCODE": "MMR017024002", "VILLAGE": "Paw Taw Mu", "VLG_PCODE": 153967.0, "VLG_MMR": "ပေါ်တော်မူ", "ALTVLG_ENG": null, "ALTVLG_MMR": null, "Longitude": 95.54340363, "Latitude": 16.37984085, "PCODE_V": 9.6 }, "geometry": { "type": "Point", "coordinates": [ 95.54340363, 16.37984085 ] } },
{ "type": "Feature", "properties": { "ST": "Ayeyarwady", "ST_PCODE": "MMR017", "DT": "Pyapon", "DT_PCODE": "MMR017D006", "TS": "Bogale", "TS_PCODE": "MMR017024", "VT": "Kan Su (West)", "VT_PCODE": "MMR017024018", "VILLAGE": "Ka Zaung Lay", "VLG_PCODE": 153973.0, "VLG_MMR": "ကဇောင်းလေး", "ALTVLG_ENG": null, "ALTVLG_MMR": null, "Longitude": 95.51924896, "Latitude": 16.35214996, "PCODE_V": 9.6 }, "geometry": { "type": "Point", "coordinates": [ 95.51924896, 16.35214996 ] } },
{ "type": "Feature", "properties": { "ST": "Ayeyarwady", "ST_PCODE": "MMR017", "DT": "Pyapon", "DT_PCODE": "MMR017D006", "TS": "Bogale", "TS_PCODE": "MMR017024", "VT": "Kan Su (West)", "VT_PCODE": "MMR017024018", "VILLAGE": "Kan Su (West)", "VLG_PCODE": 153970.0, "VLG_MMR": "ကံစု (အနောက်)", "ALTVLG_ENG": null, "ALTVLG_MMR": null, "Longitude": 95.52868652, "Latitude": 16.37059975, "PCODE_V": 9.6 }, "geometry": { "type": "Point", "coordinates": [ 95.52868652, 16.37059975 ] } },
{ "type": "Feature", "properties": { "ST": "Ayeyarwady", "ST_PCODE": "MMR017", "DT": "Pyapon", "DT_PCODE": "MMR017D006", "TS": "Bogale", "TS_PCODE": "MMR017024", "VT": "Kan Su (West)", "VT_PCODE": "MMR017024018", "VILLAGE": "Kyon Chin", "VLG_PCODE": 153975.0, "VLG_MMR": "ကျုံချဉ်", "ALTVLG_ENG": null, "ALTVLG_MMR": null, "Longitude": 95.50756073, "Latitude": 16.35626984, "PCODE_V": 9.6 }, "geometry": { "type": "Point", "coordinates": [ 95.50756073, 16.35626984 ] } },
{ "type": "Feature", "properties": { "ST": "Ayeyarwady", "ST_PCODE": "MMR017", "DT": "Pyapon", "DT_PCODE": "MMR017D006", "TS": "Bogale", "TS_PCODE": "MMR017024", "VT": "Kan Su (West)", "VT_PCODE": "MMR017024018", "VILLAGE": "Nyaung Lan Su", "VLG_PCODE": 153971.0, "VLG_MMR": "ညောင်လန်းစု", "ALTVLG_ENG": null, "ALTVLG_MMR": null, "Longitude": 95.53172302, "Latitude": 16.35730934, "PCODE_V": 9.6 }, "geometry": { "type": "Point", "coordinates": [ 95.53172302, 16.35730934 ] } },
{ "type": "Feature", "properties": { "ST": "Ayeyarwady", "ST_PCODE": "MMR017", "DT": "Pyapon", "DT_PCODE": "MMR017D006", "TS": "Bogale", "TS_PCODE": "MMR017024", "VT": "Kan Su (West)", "VT_PCODE": "MMR017024018", "VILLAGE": "Sar Hpyu Su", "VLG_PCODE": 153974.0, "VLG_MMR": "စာဖြူစု", "ALTVLG_ENG": null, "ALTVLG_MMR": null, "Longitude": 95.52977753, "Latitude": 16.37908936, "PCODE_V": 9.6 }, "geometry": { "type": "Point", "coordinates": [ 95.52977753, 16.37908936 ] } },
{ "type": "Feature", "properties": { "ST": "Ayeyarwady", "ST_PCODE": "MMR017", "DT": "Pyapon", "DT_PCODE": "MMR017D006", "TS": "Bogale", "TS_PCODE": "MMR017024", "VT": "Kan Su (West)", "VT_PCODE": "MMR017024018", "VILLAGE": "Tin Koke Gyi", "VLG_PCODE": 153972.0, "VLG_MMR": "တင်းကုတ်ကြီး", "ALTVLG_ENG": null, "ALTVLG_MMR": null, "Longitude": 95.50531006, "Latitude": 16.36580086, "PCODE_V": 9.6 }, "geometry": { "type": "Point", "coordinates": [ 95.50531006, 16.36580086 ] } },
{ "type": "Feature", "properties": { "ST": "Ayeyarwady", "ST_PCODE": "MMR017", "DT": "Pyapon", "DT_PCODE": "MMR017D006", "TS": "Bogale", "TS_PCODE": "MMR017024", "VT": "Kha Naung", "VT_PCODE": "MMR017024065", "VILLAGE": "Ka Ni Gyi", "VLG_PCODE": 154226.0, "VLG_MMR": "ကနီကြီး", "ALTVLG_ENG": null, "ALTVLG_MMR": null, "Longitude": 95.56281281, "Latitude": 16.07168961, "PCODE_V": 9.6 }, "geometry": { "type": "Point", "coordinates": [ 95.56281281, 16.07168961 ] } },
{ "type": "Feature", "properties": { "ST": "Ayeyarwady", "ST_PCODE": "MMR017", "DT": "Pyapon", "DT_PCODE": "MMR017D006", "TS": "Bogale", "TS_PCODE": "MMR017024", "VT": "Kha Naung", "VT_PCODE": "MMR017024065", "VILLAGE": "Kha Naung", "VLG_PCODE": 154225.0, "VLG_MMR": "ခနောင်", "ALTVLG_ENG": null, "ALTVLG_MMR": null, "Longitude": 95.55238342, "Latitude": 16.08518028, "PCODE_V": 9.6 }, "geometry": { "type": "Point", "coordinates": [ 95.55238342, 16.08518028 ] } },
{ "type": "Feature", "properties": { "ST": "Ayeyarwady", "ST_PCODE": "MMR017", "DT": "Pyapon", "DT_PCODE": "MMR017D006", "TS": "Bogale", "TS_PCODE": "MMR017024", "VT": "Kha Naung", "VT_PCODE": "MMR017024065", "VILLAGE": "Yat Hpa Yone", "VLG_PCODE": 164112.0, "VLG_MMR": "ရပ်ဖရုံ", "ALTVLG_ENG": null, "ALTVLG_MMR": null, "Longitude": 95.57437134, "Latitude": 16.04710007, "PCODE_V": 9.6 }, "geometry": { "type": "Point", "coordinates": [ 95.57437134, 16.04710007 ] } },
{ "type": "Feature", "properties": { "ST": "Ayeyarwady", "ST_PCODE": "MMR017", "DT": "Pyapon", "DT_PCODE": "MMR017D006", "TS": "Bogale", "TS_PCODE": "MMR017024", "VT": "Ku Lar Ohn Pin Su", "VT_PCODE": "MMR017024017", "VILLAGE": "Auk Su", "VLG_PCODE": 154612.0, "VLG_MMR": "အောက်စု", "ALTVLG_ENG": null, "ALTVLG_MMR": null, "Longitude": 95.533218, "Latitude": 16.38142, "PCODE_V": 9.6 }, "geometry": { "type": "Point", "coordinates": [ 95.533218, 16.38142 ] } },
{ "type": "Feature", "properties": { "ST": "Ayeyarwady", "ST_PCODE": "MMR017", "DT": "Pyapon", "DT_PCODE": "MMR017D006", "TS": "Bogale", "TS_PCODE": "MMR017024", "VT": "Ku Lar Ohn Pin Su", "VT_PCODE": "MMR017024017", "VILLAGE": "Aye Su", "VLG_PCODE": 154610.0, "VLG_MMR": "အေးစု", "ALTVLG_ENG": null, "ALTVLG_MMR": null, "Longitude": 95.51828766, "Latitude": 16.39203072, "PCODE_V": 9.6 }, "geometry": { "type": "Point", "coordinates": [ 95.51828766, 16.39203072 ] } },
{ "type": "Feature", "properties": { "ST": "Ayeyarwady", "ST_PCODE": "MMR017", "DT": "Pyapon", "DT_PCODE": "MMR017D006", "TS": "Bogale", "TS_PCODE": "MMR017024", "VT": "Ku Lar Ohn Pin Su", "VT_PCODE": "MMR017024017", "VILLAGE": "Ku Lar Ohn Pin Su", "VLG_PCODE": 154607.0, "VLG_MMR": "ကုလားအုံးပင်စု", "ALTVLG_ENG": null, "ALTVLG_MMR": null, "Longitude": 95.52240753, "Latitude": 16.38694954, "PCODE_V": 9.6 }, "geometry": { "type": "Point", "coordinates": [ 95.52240753, 16.38694954 ] } },
{ "type": "Feature", "properties": { "ST": "Ayeyarwady", "ST_PCODE": "MMR017", "DT": "Pyapon", "DT_PCODE": "MMR017D006", "TS": "Bogale", "TS_PCODE": "MMR017024", "VT": "Ku Lar Ohn Pin Su", "VT_PCODE": "MMR017024017", "VILLAGE": "Sar Hpyu Su", "VLG_PCODE": 154611.0, "VLG_MMR": "စာဖြူစု", "ALTVLG_ENG": null, "ALTVLG_MMR": null, "Longitude": 95.52662659000001, "Latitude": 16.37634087, "PCODE_V": 9.6 }, "geometry": { "type": "Point", "coordinates": [ 95.52662659, 16.37634087 ] } },
{ "type": "Feature", "properties": { "ST": "Ayeyarwady", "ST_PCODE": "MMR017", "DT": "Pyapon", "DT_PCODE": "MMR017D006", "TS": "Bogale", "TS_PCODE": "MMR017024", "VT": "Ku Lar Ohn Pin Su", "VT_PCODE": "MMR017024017", "VILLAGE": "Ta Yoke Seik", "VLG_PCODE": 154608.0, "VLG_MMR": "တရုပ်ဆိပ်", "ALTVLG_ENG": null, "ALTVLG_MMR": null, "Longitude": 95.51735687, "Latitude": 16.38887024, "PCODE_V": 9.6 }, "geometry": { "type": "Point", "coordinates": [ 95.51735687, 16.38887024 ] } },
{ "type": "Feature", "properties": { "ST": "Ayeyarwady", "ST_PCODE": "MMR017", "DT": "Pyapon", "DT_PCODE": "MMR017D006", "TS": "Bogale", "TS_PCODE": "MMR017024", "VT": "Ku Lar Ohn Pin Su", "VT_PCODE": "MMR017024017", "VILLAGE": "Tone Le", "VLG_PCODE": 154609.0, "VLG_MMR": "တုံးလဲ", "ALTVLG_ENG": null, "ALTVLG_MMR": null, "Longitude": 95.50530243, "Latitude": 16.38809967, "PCODE_V": 9.6 }, "geometry": { "type": "Point", "coordinates": [ 95.50530243, 16.38809967 ] } },
{ "type": "Feature", "properties": { "ST": "Ayeyarwady", "ST_PCODE": "MMR017", "DT": "Pyapon", "DT_PCODE": "MMR017D006", "TS": "Bogale", "TS_PCODE": "MMR017024", "VT": "Kun Pin", "VT_PCODE": "MMR017024006", "VILLAGE": "Kun Pin", "VLG_PCODE": 154709.0, "VLG_MMR": "ကွန်ပင်", "ALTVLG_ENG": null, "ALTVLG_MMR": null, "Longitude": 95.60289764, "Latitude": 16.38652992, "PCODE_V": 9.6 }, "geometry": { "type": "Point", "coordinates": [ 95.60289764, 16.38652992 ] } },
{ "type": "Feature", "properties": { "ST": "Ayeyarwady", "ST_PCODE": "MMR017", "DT": "Pyapon", "DT_PCODE": "MMR017D006", "TS": "Bogale", "TS_PCODE": "MMR017024", "VT": "Kwin Gyi", "VT_PCODE": "MMR017024026", "VILLAGE": "Ah Kei Gyi", "VLG_PCODE": 164115.0, "VLG_MMR": "အကယ်ကြီး", "ALTVLG_ENG": null, "ALTVLG_MMR": null, "Longitude": 95.46633911000001, "Latitude": 16.36961937, "PCODE_V": 9.6 }, "geometry": { "type": "Point", "coordinates": [ 95.46633911, 16.36961937 ] } },
{ "type": "Feature", "properties": { "ST": "Ayeyarwady", "ST_PCODE": "MMR017", "DT": "Pyapon", "DT_PCODE": "MMR017D006", "TS": "Bogale", "TS_PCODE": "MMR017024", "VT": "Kwin Gyi", "VT_PCODE": "MMR017024026", "VILLAGE": "Kun Daing", "VLG_PCODE": 217865.0, "VLG_MMR": "ကွန်ဒိုင်း", "ALTVLG_ENG": null, "ALTVLG_MMR": null, "Longitude": 95.45111084, "Latitude": 16.36750031, "PCODE_V": 9.6 }, "geometry": { "type": "Point", "coordinates": [ 95.45111084, 16.36750031 ] } },
{ "type": "Feature", "properties": { "ST": "Ayeyarwady", "ST_PCODE": "MMR017", "DT": "Pyapon", "DT_PCODE": "MMR017D006", "TS": "Bogale", "TS_PCODE": "MMR017024", "VT": "Kwin Gyi", "VT_PCODE": "MMR017024026", "VILLAGE": "Kwin Gyi", "VLG_PCODE": 154850.0, "VLG_MMR": "ကွင်းကြီး", "ALTVLG_ENG": null, "ALTVLG_MMR": null, "Longitude": 95.45623016, "Latitude": 16.40745926, "PCODE_V": 9.6 }, "geometry": { "type": "Point", "coordinates": [ 95.45623016, 16.40745926 ] } },
{ "type": "Feature", "properties": { "ST": "Ayeyarwady", "ST_PCODE": "MMR017", "DT": "Pyapon", "DT_PCODE": "MMR017D006", "TS": "Bogale", "TS_PCODE": "MMR017024", "VT": "Kwin Gyi", "VT_PCODE": "MMR017024026", "VILLAGE": "Ngar Ein Tan", "VLG_PCODE": 154851.0, "VLG_MMR": "ငါးအိမ်တန်း", "ALTVLG_ENG": null, "ALTVLG_MMR": null, "Longitude": 95.46341705, "Latitude": 16.40048027, "PCODE_V": 9.6 }, "geometry": { "type": "Point", "coordinates": [ 95.46341705, 16.40048027 ] } },
{ "type": "Feature", "properties": { "ST": "Ayeyarwady", "ST_PCODE": "MMR017", "DT": "Pyapon", "DT_PCODE": "MMR017D006", "TS": "Bogale", "TS_PCODE": "MMR017024", "VT": "Kwin Gyi", "VT_PCODE": "MMR017024026", "VILLAGE": "San Thit U", "VLG_PCODE": 154852.0, "VLG_MMR": "ဆန်းသစ်ဦး", "ALTVLG_ENG": null, "ALTVLG_MMR": null, "Longitude": 95.44429779, "Latitude": 16.37560081, "PCODE_V": 9.6 }, "geometry": { "type": "Point", "coordinates": [ 95.44429779, 16.37560081 ] } },
{ "type": "Feature", "properties": { "ST": "Ayeyarwady", "ST_PCODE": "MMR017", "DT": "Pyapon", "DT_PCODE": "MMR017D006", "TS": "Bogale", "TS_PCODE": "MMR017024", "VT": "Kwin Gyi", "VT_PCODE": "MMR017024026", "VILLAGE": "Zee Kone", "VLG_PCODE": 164114.0, "VLG_MMR": "ဇီးကုန်း", "ALTVLG_ENG": null, "ALTVLG_MMR": null, "Longitude": 95.4801712, "Latitude": 16.37368965, "PCODE_V": 9.6 }, "geometry": { "type": "Point", "coordinates": [ 95.4801712, 16.37368965 ] } },
{ "type": "Feature", "properties": { "ST": "Ayeyarwady", "ST_PCODE": "MMR017", "DT": "Pyapon", "DT_PCODE": "MMR017D006", "TS": "Bogale", "TS_PCODE": "MMR017024", "VT": "Kwin Pone Gyi", "VT_PCODE": "MMR017024015", "VILLAGE": "Ah Kaw", "VLG_PCODE": 154955.0, "VLG_MMR": "အကော်", "ALTVLG_ENG": null, "ALTVLG_MMR": null, "Longitude": 95.51246643, "Latitude": 16.40943909, "PCODE_V": 9.6 }, "geometry": { "type": "Point", "coordinates": [ 95.51246643, 16.40943909 ] } },
{ "type": "Feature", "properties": { "ST": "Ayeyarwady", "ST_PCODE": "MMR017", "DT": "Pyapon", "DT_PCODE": "MMR017D006", "TS": "Bogale", "TS_PCODE": "MMR017024", "VT": "Kwin Pone Gyi", "VT_PCODE": "MMR017024015", "VILLAGE": "Ban Du La", "VLG_PCODE": 154957.0, "VLG_MMR": "ဗန္ဓုလ", "ALTVLG_ENG": null, "ALTVLG_MMR": null, "Longitude": 95.52906799, "Latitude": 16.39669037, "PCODE_V": 9.6 }, "geometry": { "type": "Point", "coordinates": [ 95.52906799, 16.39669037 ] } },
{ "type": "Feature", "properties": { "ST": "Ayeyarwady", "ST_PCODE": "MMR017", "DT": "Pyapon", "DT_PCODE": "MMR017D006", "TS": "Bogale", "TS_PCODE": "MMR017024", "VT": "Kwin Pone Gyi", "VT_PCODE": "MMR017024015", "VILLAGE": "Kwin Pone Gyi", "VLG_PCODE": 154954.0, "VLG_MMR": "ကွင်းပုံးကြီး", "ALTVLG_ENG": null, "ALTVLG_MMR": null, "Longitude": 95.51619, "Latitude": 16.398781, "PCODE_V": 9.6 }, "geometry": { "type": "Point", "coordinates": [ 95.51619, 16.398781 ] } },
{ "type": "Feature", "properties": { "ST": "Ayeyarwady", "ST_PCODE": "MMR017", "DT": "Pyapon", "DT_PCODE": "MMR017D006", "TS": "Bogale", "TS_PCODE": "MMR017024", "VT": "Kwin Pone Gyi", "VT_PCODE": "MMR017024015", "VILLAGE": "Shwe Bo Su", "VLG_PCODE": 216740.0, "VLG_MMR": "ရွှေဘိုစု", "ALTVLG_ENG": null, "ALTVLG_MMR": null, "Longitude": 95.51439667, "Latitude": 16.41622925, "PCODE_V": 9.6 }, "geometry": { "type": "Point", "coordinates": [ 95.51439667, 16.41622925 ] } },
{ "type": "Feature", "properties": { "ST": "Ayeyarwady", "ST_PCODE": "MMR017", "DT": "Pyapon", "DT_PCODE": "MMR017D006", "TS": "Bogale", "TS_PCODE": "MMR017024", "VT": "Kyein Chaung Gyi", "VT_PCODE": "MMR017024068", "VILLAGE": "Ah Pyin Pa De Kaw", "VLG_PCODE": 155528.0, "VLG_MMR": "အပြင်ပဒဲကော်", "ALTVLG_ENG": null, "ALTVLG_MMR": null, "Longitude": 95.2629776, "Latitude": 16.00832939, "PCODE_V": 9.6 },