{
"type": "FeatureCollection",
"name": "Myaung_Mya_DT_Village",
"crs": { "type": "name", "properties": { "name": "urn:ogc:def:crs:OGC:1.3:CRS84" } },
"features": [
{ "type": "Feature", "properties": { "ST": "Ayeyarwady", "ST_PCODE": "MMR017", "DT": "Myaungmya", "DT_PCODE": "MMR017D003", "TS": "Einme", "TS_PCODE": "MMR017015", "VT": "Ku", "VT_PCODE": "MMR017015033", "VILLAGE": "Ku Ywar", "VLG_PCODE": 154568.0, "VLG_MMR": "ကူရွာ", "ALTVLG_ENG": null, "ALTVLG_MMR": null, "Longitude": 95.19563332, "Latitude": 16.75686081, "PCODE_V": 9.6 }, "geometry": { "type": "Point", "coordinates": [ 95.19563332, 16.75686081 ] } },
{ "type": "Feature", "properties": { "ST": "Ayeyarwady", "ST_PCODE": "MMR017", "DT": "Myaungmya", "DT_PCODE": "MMR017D003", "TS": "Einme", "TS_PCODE": "MMR017015", "VT": "Ah Su Gyi", "VT_PCODE": "MMR017015048", "VILLAGE": "Ah Su Gyi", "VLG_PCODE": 150326.0, "VLG_MMR": "အစုကြီး", "ALTVLG_ENG": null, "ALTVLG_MMR": null, "Longitude": 95.0286026, "Latitude": 16.79772949, "PCODE_V": 9.6 }, "geometry": { "type": "Point", "coordinates": [ 95.0286026, 16.79772949 ] } },
{ "type": "Feature", "properties": { "ST": "Ayeyarwady", "ST_PCODE": "MMR017", "DT": "Myaungmya", "DT_PCODE": "MMR017D003", "TS": "Einme", "TS_PCODE": "MMR017015", "VT": "Ah Su Gyi", "VT_PCODE": "MMR017015048", "VILLAGE": "Nyaung Kone", "VLG_PCODE": 218681.0, "VLG_MMR": "ညောင်ကုန်း", "ALTVLG_ENG": null, "ALTVLG_MMR": null, "Longitude": 95.043541, "Latitude": 16.795634, "PCODE_V": 9.6 }, "geometry": { "type": "Point", "coordinates": [ 95.043541, 16.795634 ] } },
{ "type": "Feature", "properties": { "ST": "Ayeyarwady", "ST_PCODE": "MMR017", "DT": "Myaungmya", "DT_PCODE": "MMR017D003", "TS": "Einme", "TS_PCODE": "MMR017015", "VT": "Ah Su Gyi", "VT_PCODE": "MMR017015048", "VILLAGE": "Pwe Sar Yay Hsaing", "VLG_PCODE": 218682.0, "VLG_MMR": "ပွဲစားရေဆိုင်", "ALTVLG_ENG": null, "ALTVLG_MMR": null, "Longitude": 94.955686, "Latitude": 16.73946, "PCODE_V": 9.6 }, "geometry": { "type": "Point", "coordinates": [ 94.955686, 16.73946 ] } },
{ "type": "Feature", "properties": { "ST": "Ayeyarwady", "ST_PCODE": "MMR017", "DT": "Myaungmya", "DT_PCODE": "MMR017D003", "TS": "Einme", "TS_PCODE": "MMR017015", "VT": "Ah Su Gyi", "VT_PCODE": "MMR017015048", "VILLAGE": "Tar Hteik", "VLG_PCODE": 150328.0, "VLG_MMR": "တာထိပ်", "ALTVLG_ENG": null, "ALTVLG_MMR": null, "Longitude": 94.964832, "Latitude": 16.737862, "PCODE_V": 9.6 }, "geometry": { "type": "Point", "coordinates": [ 94.964832, 16.737862 ] } },
{ "type": "Feature", "properties": { "ST": "Ayeyarwady", "ST_PCODE": "MMR017", "DT": "Myaungmya", "DT_PCODE": "MMR017D003", "TS": "Einme", "TS_PCODE": "MMR017015", "VT": "Ah Su Gyi", "VT_PCODE": "MMR017015048", "VILLAGE": "Tar Ta Paw Ka Lay", "VLG_PCODE": 150327.0, "VLG_MMR": "တာတပေါကလေး", "ALTVLG_ENG": null, "ALTVLG_MMR": null, "Longitude": 95.02603142, "Latitude": 16.80440709, "PCODE_V": 9.6 }, "geometry": { "type": "Point", "coordinates": [ 95.02603142, 16.80440709 ] } },
{ "type": "Feature", "properties": { "ST": "Ayeyarwady", "ST_PCODE": "MMR017", "DT": "Myaungmya", "DT_PCODE": "MMR017D003", "TS": "Einme", "TS_PCODE": "MMR017015", "VT": "Ah Su Gyi", "VT_PCODE": "MMR017015048", "VILLAGE": "Thar Yar Kone", "VLG_PCODE": 218678.0, "VLG_MMR": "သာယာကုန်း", "ALTVLG_ENG": null, "ALTVLG_MMR": null, "Longitude": 95.02169366, "Latitude": 16.79787369, "PCODE_V": 9.6 }, "geometry": { "type": "Point", "coordinates": [ 95.02169366, 16.79787369 ] } },
{ "type": "Feature", "properties": { "ST": "Ayeyarwady", "ST_PCODE": "MMR017", "DT": "Myaungmya", "DT_PCODE": "MMR017D003", "TS": "Einme", "TS_PCODE": "MMR017015", "VT": "Ah Su Gyi Kyaung Su", "VT_PCODE": "MMR017015091", "VILLAGE": "Ah Lel Su", "VLG_PCODE": 150333.0, "VLG_MMR": "အလယ်စု", "ALTVLG_ENG": null, "ALTVLG_MMR": null, "Longitude": 95.0948404, "Latitude": 16.68171003, "PCODE_V": 9.6 }, "geometry": { "type": "Point", "coordinates": [ 95.0948404, 16.68171003 ] } },
{ "type": "Feature", "properties": { "ST": "Ayeyarwady", "ST_PCODE": "MMR017", "DT": "Myaungmya", "DT_PCODE": "MMR017D003", "TS": "Einme", "TS_PCODE": "MMR017015", "VT": "Ah Su Gyi Kyaung Su", "VT_PCODE": "MMR017015091", "VILLAGE": "Ah Su Gyi", "VLG_PCODE": 150330.0, "VLG_MMR": "အစုကြီး", "ALTVLG_ENG": null, "ALTVLG_MMR": null, "Longitude": 95.10001373, "Latitude": 16.68744087, "PCODE_V": 9.6 }, "geometry": { "type": "Point", "coordinates": [ 95.10001373, 16.68744087 ] } },
{ "type": "Feature", "properties": { "ST": "Ayeyarwady", "ST_PCODE": "MMR017", "DT": "Myaungmya", "DT_PCODE": "MMR017D003", "TS": "Einme", "TS_PCODE": "MMR017015", "VT": "Ah Su Gyi Kyaung Su", "VT_PCODE": "MMR017015091", "VILLAGE": "Boe Aung Ni", "VLG_PCODE": 150331.0, "VLG_MMR": "ဘိုးအောင်နီ", "ALTVLG_ENG": null, "ALTVLG_MMR": null, "Longitude": 95.11824036, "Latitude": 16.68296051, "PCODE_V": 9.6 }, "geometry": { "type": "Point", "coordinates": [ 95.11824036, 16.68296051 ] } },
{ "type": "Feature", "properties": { "ST": "Ayeyarwady", "ST_PCODE": "MMR017", "DT": "Myaungmya", "DT_PCODE": "MMR017D003", "TS": "Einme", "TS_PCODE": "MMR017015", "VT": "Ah Su Gyi Kyaung Su", "VT_PCODE": "MMR017015091", "VILLAGE": "Kyaung Su", "VLG_PCODE": 150329.0, "VLG_MMR": "ကျောင်းစု", "ALTVLG_ENG": null, "ALTVLG_MMR": null, "Longitude": 95.09525299000001, "Latitude": 16.68997002, "PCODE_V": 9.6 }, "geometry": { "type": "Point", "coordinates": [ 95.09525299, 16.68997002 ] } },
{ "type": "Feature", "properties": { "ST": "Ayeyarwady", "ST_PCODE": "MMR017", "DT": "Myaungmya", "DT_PCODE": "MMR017D003", "TS": "Einme", "TS_PCODE": "MMR017015", "VT": "Ah Su Gyi Kyaung Su", "VT_PCODE": "MMR017015091", "VILLAGE": "Nyan Taw Kwin", "VLG_PCODE": 150332.0, "VLG_MMR": "ဉာဏ်တောကွင်း", "ALTVLG_ENG": null, "ALTVLG_MMR": null, "Longitude": 95.09037391, "Latitude": 16.6778097, "PCODE_V": 9.6 }, "geometry": { "type": "Point", "coordinates": [ 95.09037391, 16.6778097 ] } },
{ "type": "Feature", "properties": { "ST": "Ayeyarwady", "ST_PCODE": "MMR017", "DT": "Myaungmya", "DT_PCODE": "MMR017D003", "TS": "Einme", "TS_PCODE": "MMR017015", "VT": "Ah Su Gyi Kyaung Su", "VT_PCODE": "MMR017015091", "VILLAGE": "Saik Pyoe Ywar", "VLG_PCODE": 218692.0, "VLG_MMR": "စိုက်ပျိုးရွာ", "ALTVLG_ENG": null, "ALTVLG_MMR": null, "Longitude": 95.10717395, "Latitude": 16.66709815, "PCODE_V": 9.6 }, "geometry": { "type": "Point", "coordinates": [ 95.10717395, 16.66709815 ] } },
{ "type": "Feature", "properties": { "ST": "Ayeyarwady", "ST_PCODE": "MMR017", "DT": "Myaungmya", "DT_PCODE": "MMR017D003", "TS": "Einme", "TS_PCODE": "MMR017015", "VT": "Aing Gyi", "VT_PCODE": "MMR017015030", "VILLAGE": "Aing Gyi", "VLG_PCODE": 150420.0, "VLG_MMR": "အိုင်ကြီး", "ALTVLG_ENG": null, "ALTVLG_MMR": null, "Longitude": 95.21282196, "Latitude": 16.80908966, "PCODE_V": 9.6 }, "geometry": { "type": "Point", "coordinates": [ 95.21282196, 16.80908966 ] } },
{ "type": "Feature", "properties": { "ST": "Ayeyarwady", "ST_PCODE": "MMR017", "DT": "Myaungmya", "DT_PCODE": "MMR017D003", "TS": "Einme", "TS_PCODE": "MMR017015", "VT": "Aing Gyi", "VT_PCODE": "MMR017015030", "VILLAGE": "Kyon Da Yei", "VLG_PCODE": 150422.0, "VLG_MMR": "ကျုံဒရယ်", "ALTVLG_ENG": null, "ALTVLG_MMR": null, "Longitude": 95.22104645, "Latitude": 16.81858063, "PCODE_V": 9.6 }, "geometry": { "type": "Point", "coordinates": [ 95.22104645, 16.81858063 ] } },
{ "type": "Feature", "properties": { "ST": "Ayeyarwady", "ST_PCODE": "MMR017", "DT": "Myaungmya", "DT_PCODE": "MMR017D003", "TS": "Einme", "TS_PCODE": "MMR017015", "VT": "Aing Gyi", "VT_PCODE": "MMR017015030", "VILLAGE": "Tit Ti Tu", "VLG_PCODE": 150421.0, "VLG_MMR": "တစ်တီတူး", "ALTVLG_ENG": null, "ALTVLG_MMR": null, "Longitude": 95.21850586, "Latitude": 16.83103561, "PCODE_V": 9.6 }, "geometry": { "type": "Point", "coordinates": [ 95.21850586, 16.83103561 ] } },
{ "type": "Feature", "properties": { "ST": "Ayeyarwady", "ST_PCODE": "MMR017", "DT": "Myaungmya", "DT_PCODE": "MMR017D003", "TS": "Einme", "TS_PCODE": "MMR017015", "VT": "Boe Hlaw Yoe", "VT_PCODE": "MMR017015011", "VILLAGE": "Boe Hlaw Yoe", "VLG_PCODE": 150872.0, "VLG_MMR": "ဘိုးလှော်ရိုး", "ALTVLG_ENG": null, "ALTVLG_MMR": null, "Longitude": 95.095676, "Latitude": 16.861089, "PCODE_V": 9.6 }, "geometry": { "type": "Point", "coordinates": [ 95.095676, 16.861089 ] } },
{ "type": "Feature", "properties": { "ST": "Ayeyarwady", "ST_PCODE": "MMR017", "DT": "Myaungmya", "DT_PCODE": "MMR017D003", "TS": "Einme", "TS_PCODE": "MMR017015", "VT": "Boe Hlaw Yoe", "VT_PCODE": "MMR017015011", "VILLAGE": "Chan Kone (East)", "VLG_PCODE": 150874.0, "VLG_MMR": "ခြံကုန်း (အရှေ့)", "ALTVLG_ENG": null, "ALTVLG_MMR": null, "Longitude": 95.098078, "Latitude": 16.872838, "PCODE_V": 9.6 }, "geometry": { "type": "Point", "coordinates": [ 95.098078, 16.872838 ] } },
{ "type": "Feature", "properties": { "ST": "Ayeyarwady", "ST_PCODE": "MMR017", "DT": "Myaungmya", "DT_PCODE": "MMR017D003", "TS": "Einme", "TS_PCODE": "MMR017015", "VT": "Boe Hlaw Yoe", "VT_PCODE": "MMR017015011", "VILLAGE": "Ngar Khone Ma Ga Yet", "VLG_PCODE": 150875.0, "VLG_MMR": "ငါးခုံးမဂရက်", "ALTVLG_ENG": null, "ALTVLG_MMR": null, "Longitude": 95.094205, "Latitude": 16.869017, "PCODE_V": 9.6 }, "geometry": { "type": "Point", "coordinates": [ 95.094205, 16.869017 ] } },
{ "type": "Feature", "properties": { "ST": "Ayeyarwady", "ST_PCODE": "MMR017", "DT": "Myaungmya", "DT_PCODE": "MMR017D003", "TS": "Einme", "TS_PCODE": "MMR017015", "VT": "Boe Hlaw Yoe", "VT_PCODE": "MMR017015011", "VILLAGE": "Ta Dar U", "VLG_PCODE": 150873.0, "VLG_MMR": "တံတားဦး", "ALTVLG_ENG": null, "ALTVLG_MMR": null, "Longitude": 95.08585841, "Latitude": 16.87907788, "PCODE_V": 9.6 }, "geometry": { "type": "Point", "coordinates": [ 95.08585841, 16.87907788 ] } },
{ "type": "Feature", "properties": { "ST": "Ayeyarwady", "ST_PCODE": "MMR017", "DT": "Myaungmya", "DT_PCODE": "MMR017D003", "TS": "Einme", "TS_PCODE": "MMR017015", "VT": "Chauk Ein Tan", "VT_PCODE": "MMR017015073", "VILLAGE": "Chauk Ein Tan", "VLG_PCODE": 151076.0, "VLG_MMR": "ခြောက်အိမ်တန်း", "ALTVLG_ENG": null, "ALTVLG_MMR": null, "Longitude": 95.05371857, "Latitude": 16.63202286, "PCODE_V": 9.6 }, "geometry": { "type": "Point", "coordinates": [ 95.05371857, 16.63202286 ] } },
{ "type": "Feature", "properties": { "ST": "Ayeyarwady", "ST_PCODE": "MMR017", "DT": "Myaungmya", "DT_PCODE": "MMR017D003", "TS": "Einme", "TS_PCODE": "MMR017015", "VT": "Chauk Ein Tan", "VT_PCODE": "MMR017015073", "VILLAGE": "Hpoe Aye Chaung", "VLG_PCODE": 151078.0, "VLG_MMR": "ဖိုးအေးချောင်း", "ALTVLG_ENG": null, "ALTVLG_MMR": null, "Longitude": 95.04477692, "Latitude": 16.63172913, "PCODE_V": 9.6 }, "geometry": { "type": "Point", "coordinates": [ 95.04477692, 16.63172913 ] } },
{ "type": "Feature", "properties": { "ST": "Ayeyarwady", "ST_PCODE": "MMR017", "DT": "Myaungmya", "DT_PCODE": "MMR017D003", "TS": "Einme", "TS_PCODE": "MMR017015", "VT": "Chauk Ein Tan", "VT_PCODE": "MMR017015073", "VILLAGE": "Ku Lar Kone", "VLG_PCODE": 151083.0, "VLG_MMR": "ကုလားကုန်း", "ALTVLG_ENG": null, "ALTVLG_MMR": null, "Longitude": 95.06098175, "Latitude": 16.64484978, "PCODE_V": 9.6 }, "geometry": { "type": "Point", "coordinates": [ 95.06098175, 16.64484978 ] } },
{ "type": "Feature", "properties": { "ST": "Ayeyarwady", "ST_PCODE": "MMR017", "DT": "Myaungmya", "DT_PCODE": "MMR017D003", "TS": "Einme", "TS_PCODE": "MMR017015", "VT": "Chauk Ein Tan", "VT_PCODE": "MMR017015073", "VILLAGE": "Kyan Chaung Lay", "VLG_PCODE": 151079.0, "VLG_MMR": "ကျန်ချောင်းလေး", "ALTVLG_ENG": null, "ALTVLG_MMR": null, "Longitude": 95.03620148, "Latitude": 16.62833023, "PCODE_V": 9.6 }, "geometry": { "type": "Point", "coordinates": [ 95.03620148, 16.62833023 ] } },
{ "type": "Feature", "properties": { "ST": "Ayeyarwady", "ST_PCODE": "MMR017", "DT": "Myaungmya", "DT_PCODE": "MMR017D003", "TS": "Einme", "TS_PCODE": "MMR017015", "VT": "Chauk Ein Tan", "VT_PCODE": "MMR017015073", "VILLAGE": "Shwe Ban Chaung", "VLG_PCODE": 151082.0, "VLG_MMR": "ရွှေဘန်းချောင်း", "ALTVLG_ENG": null, "ALTVLG_MMR": null, "Longitude": 95.06047821, "Latitude": 16.6431694, "PCODE_V": 9.6 }, "geometry": { "type": "Point", "coordinates": [ 95.06047821, 16.6431694 ] } },
{ "type": "Feature", "properties": { "ST": "Ayeyarwady", "ST_PCODE": "MMR017", "DT": "Myaungmya", "DT_PCODE": "MMR017D003", "TS": "Einme", "TS_PCODE": "MMR017015", "VT": "Chauk Ein Tan", "VT_PCODE": "MMR017015073", "VILLAGE": "Ta Ku Seik", "VLG_PCODE": 151080.0, "VLG_MMR": "တကူဆိပ်", "ALTVLG_ENG": null, "ALTVLG_MMR": null, "Longitude": 95.03089142, "Latitude": 16.62581062, "PCODE_V": 9.6 }, "geometry": { "type": "Point", "coordinates": [ 95.03089142, 16.62581062 ] } },
{ "type": "Feature", "properties": { "ST": "Ayeyarwady", "ST_PCODE": "MMR017", "DT": "Myaungmya", "DT_PCODE": "MMR017D003", "TS": "Einme", "TS_PCODE": "MMR017015", "VT": "Chauk Ein Tan", "VT_PCODE": "MMR017015073", "VILLAGE": "Than Hlyet Sun", "VLG_PCODE": 151081.0, "VLG_MMR": "သံလျှက်စွန်း", "ALTVLG_ENG": null, "ALTVLG_MMR": null, "Longitude": 95.06873322, "Latitude": 16.63871002, "PCODE_V": 9.6 }, "geometry": { "type": "Point", "coordinates": [ 95.06873322, 16.63871002 ] } },
{ "type": "Feature", "properties": { "ST": "Ayeyarwady", "ST_PCODE": "MMR017", "DT": "Myaungmya", "DT_PCODE": "MMR017D003", "TS": "Einme", "TS_PCODE": "MMR017015", "VT": "Chauk Ein Tan", "VT_PCODE": "MMR017015073", "VILLAGE": "Za Yat Chaung", "VLG_PCODE": 151077.0, "VLG_MMR": "ဇရပ်ချောင်း", "ALTVLG_ENG": null, "ALTVLG_MMR": null, "Longitude": 95.06333923, "Latitude": 16.63561058, "PCODE_V": 9.6 }, "geometry": { "type": "Point", "coordinates": [ 95.06333923, 16.63561058 ] } },
{ "type": "Feature", "properties": { "ST": "Ayeyarwady", "ST_PCODE": "MMR017", "DT": "Myaungmya", "DT_PCODE": "MMR017D003", "TS": "Einme", "TS_PCODE": "MMR017015", "VT": "Chaung Thar Gyi", "VT_PCODE": "MMR017015071", "VILLAGE": "Chaung Thar Gyi", "VLG_PCODE": 151174.0, "VLG_MMR": "​ချောင်းသာကြီး", "ALTVLG_ENG": null, "ALTVLG_MMR": null, "Longitude": 95.0700417, "Latitude": 16.60272378, "PCODE_V": 9.6 }, "geometry": { "type": "Point", "coordinates": [ 95.0700417, 16.60272378 ] } },
{ "type": "Feature", "properties": { "ST": "Ayeyarwady", "ST_PCODE": "MMR017", "DT": "Myaungmya", "DT_PCODE": "MMR017D003", "TS": "Einme", "TS_PCODE": "MMR017015", "VT": "Chaung Thar Gyi", "VT_PCODE": "MMR017015071", "VILLAGE": "Shan Kwin", "VLG_PCODE": 151175.0, "VLG_MMR": "ရှမ်းကွင်း", "ALTVLG_ENG": null, "ALTVLG_MMR": null, "Longitude": 95.07584381, "Latitude": 16.60528946, "PCODE_V": 9.6 }, "geometry": { "type": "Point", "coordinates": [ 95.07584381, 16.60528946 ] } },
{ "type": "Feature", "properties": { "ST": "Ayeyarwady", "ST_PCODE": "MMR017", "DT": "Myaungmya", "DT_PCODE": "MMR017D003", "TS": "Einme", "TS_PCODE": "MMR017015", "VT": "Ga Yet Gyi", "VT_PCODE": "MMR017015017", "VILLAGE": "Ah Lel Kyun", "VLG_PCODE": 151636.0, "VLG_MMR": "အလယ်ကျွန်း", "ALTVLG_ENG": null, "ALTVLG_MMR": null, "Longitude": 95.14383698, "Latitude": 16.86322021, "PCODE_V": 9.6 }, "geometry": { "type": "Point", "coordinates": [ 95.14383698, 16.86322021 ] } },
{ "type": "Feature", "properties": { "ST": "Ayeyarwady", "ST_PCODE": "MMR017", "DT": "Myaungmya", "DT_PCODE": "MMR017D003", "TS": "Einme", "TS_PCODE": "MMR017015", "VT": "Ga Yet Gyi", "VT_PCODE": "MMR017015017", "VILLAGE": "Ah Lel Su", "VLG_PCODE": 151634.0, "VLG_MMR": "အလယ်စု", "ALTVLG_ENG": null, "ALTVLG_MMR": null, "Longitude": 95.15571428, "Latitude": 16.85889, "PCODE_V": 9.6 }, "geometry": { "type": "Point", "coordinates": [ 95.15571428, 16.85889 ] } },
{ "type": "Feature", "properties": { "ST": "Ayeyarwady", "ST_PCODE": "MMR017", "DT": "Myaungmya", "DT_PCODE": "MMR017D003", "TS": "Einme", "TS_PCODE": "MMR017015", "VT": "Ga Yet Gyi", "VT_PCODE": "MMR017015017", "VILLAGE": "Ga Yet Gyi", "VLG_PCODE": 151632.0, "VLG_MMR": "ဂယက်ကြီး", "ALTVLG_ENG": null, "ALTVLG_MMR": null, "Longitude": 95.15306182, "Latitude": 16.85436559, "PCODE_V": 9.6 }, "geometry": { "type": "Point", "coordinates": [ 95.15306182, 16.85436559 ] } },
{ "type": "Feature", "properties": { "ST": "Ayeyarwady", "ST_PCODE": "MMR017", "DT": "Myaungmya", "DT_PCODE": "MMR017D003", "TS": "Einme", "TS_PCODE": "MMR017015", "VT": "Ga Yet Gyi", "VT_PCODE": "MMR017015017", "VILLAGE": "Ga Yet Gyi Kan Nar", "VLG_PCODE": 151635.0, "VLG_MMR": "ဂယက်ကြီးကမ်းနား", "ALTVLG_ENG": null, "ALTVLG_MMR": null, "Longitude": 95.17326355, "Latitude": 16.86894989, "PCODE_V": 9.6 }, "geometry": { "type": "Point", "coordinates": [ 95.17326355, 16.86894989 ] } },
{ "type": "Feature", "properties": { "ST": "Ayeyarwady", "ST_PCODE": "MMR017", "DT": "Myaungmya", "DT_PCODE": "MMR017D003", "TS": "Einme", "TS_PCODE": "MMR017015", "VT": "Ga Yet Gyi", "VT_PCODE": "MMR017015017", "VILLAGE": "Yone Chaung", "VLG_PCODE": 151633.0, "VLG_MMR": "ရုံးချောင်", "ALTVLG_ENG": null, "ALTVLG_MMR": null, "Longitude": 95.16999817, "Latitude": 16.8624649, "PCODE_V": 9.6 }, "geometry": { "type": "Point", "coordinates": [ 95.16999817, 16.8624649 ] } },
{ "type": "Feature", "properties": { "ST": "Ayeyarwady", "ST_PCODE": "MMR017", "DT": "Myaungmya", "DT_PCODE": "MMR017D003", "TS": "Einme", "TS_PCODE": "MMR017015", "VT": "Gon Hnyin Tan", "VT_PCODE": "MMR017015067", "VILLAGE": "Gon Hnyin Tan", "VLG_PCODE": 151739.0, "VLG_MMR": "ဂုံညှင်းတန်း", "ALTVLG_ENG": null, "ALTVLG_MMR": null, "Longitude": 95.03756382, "Latitude": 16.62440789, "PCODE_V": 9.6 }, "geometry": { "type": "Point", "coordinates": [ 95.03756382, 16.62440789 ] } },
{ "type": "Feature", "properties": { "ST": "Ayeyarwady", "ST_PCODE": "MMR017", "DT": "Myaungmya", "DT_PCODE": "MMR017D003", "TS": "Einme", "TS_PCODE": "MMR017015", "VT": "Gon Hnyin Tan", "VT_PCODE": "MMR017015067", "VILLAGE": "Ku Lar Paing", "VLG_PCODE": 151743.0, "VLG_MMR": "ကုလားပိုင်း", "ALTVLG_ENG": null, "ALTVLG_MMR": null, "Longitude": 95.030587, "Latitude": 16.621842, "PCODE_V": 9.6 }, "geometry": { "type": "Point", "coordinates": [ 95.030587, 16.621842 ] } },
{ "type": "Feature", "properties": { "ST": "Ayeyarwady", "ST_PCODE": "MMR017", "DT": "Myaungmya", "DT_PCODE": "MMR017D003", "TS": "Einme", "TS_PCODE": "MMR017015", "VT": "Gon Hnyin Tan", "VT_PCODE": "MMR017015067", "VILLAGE": "Myaung Gyi Saung", "VLG_PCODE": 151740.0, "VLG_MMR": "​မြောင်းကြီးစောင်း", "ALTVLG_ENG": null, "ALTVLG_MMR": null, "Longitude": 95.042251, "Latitude": 16.616484, "PCODE_V": 9.6 }, "geometry": { "type": "Point", "coordinates": [ 95.042251, 16.616484 ] } },
{ "type": "Feature", "properties": { "ST": "Ayeyarwady", "ST_PCODE": "MMR017", "DT": "Myaungmya", "DT_PCODE": "MMR017D003", "TS": "Einme", "TS_PCODE": "MMR017015", "VT": "Gon Hnyin Tan", "VT_PCODE": "MMR017015067", "VILLAGE": "Ngar Ein Tan", "VLG_PCODE": 151741.0, "VLG_MMR": "ငါးအိမ်တန်း", "ALTVLG_ENG": null, "ALTVLG_MMR": null, "Longitude": 95.02581024, "Latitude": 16.62023926, "PCODE_V": 9.6 }, "geometry": { "type": "Point", "coordinates": [ 95.02581024, 16.62023926 ] } },
{ "type": "Feature", "properties": { "ST": "Ayeyarwady", "ST_PCODE": "MMR017", "DT": "Myaungmya", "DT_PCODE": "MMR017D003", "TS": "Einme", "TS_PCODE": "MMR017015", "VT": "Gon Hnyin Tan", "VT_PCODE": "MMR017015067", "VILLAGE": "Ywar Thit Lay", "VLG_PCODE": 151742.0, "VLG_MMR": "ရွာသစ်လေး", "ALTVLG_ENG": null, "ALTVLG_MMR": null, "Longitude": 95.04487746, "Latitude": 16.62593553, "PCODE_V": 9.6 }, "geometry": { "type": "Point", "coordinates": [ 95.04487746, 16.62593553 ] } },
{ "type": "Feature", "properties": { "ST": "Ayeyarwady", "ST_PCODE": "MMR017", "DT": "Myaungmya", "DT_PCODE": "MMR017D003", "TS": "Einme", "TS_PCODE": "MMR017015", "VT": "Hle Seik", "VT_PCODE": "MMR017015009", "VILLAGE": "Chan Kone", "VLG_PCODE": 152051.0, "VLG_MMR": "ခြံကုန်း", "ALTVLG_ENG": null, "ALTVLG_MMR": null, "Longitude": 95.07778289, "Latitude": 16.86488544, "PCODE_V": 9.6 }, "geometry": { "type": "Point", "coordinates": [ 95.07778289, 16.86488544 ] } },
{ "type": "Feature", "properties": { "ST": "Ayeyarwady", "ST_PCODE": "MMR017", "DT": "Myaungmya", "DT_PCODE": "MMR017D003", "TS": "Einme", "TS_PCODE": "MMR017015", "VT": "Hle Seik", "VT_PCODE": "MMR017015009", "VILLAGE": "Hle Seik", "VLG_PCODE": 152047.0, "VLG_MMR": "လှည်းဆိပ်", "ALTVLG_ENG": null, "ALTVLG_MMR": null, "Longitude": 95.07734371, "Latitude": 16.84825378, "PCODE_V": 9.6 }, "geometry": { "type": "Point", "coordinates": [ 95.07734371, 16.84825378 ] } },
{ "type": "Feature", "properties": { "ST": "Ayeyarwady", "ST_PCODE": "MMR017", "DT": "Myaungmya", "DT_PCODE": "MMR017D003", "TS": "Einme", "TS_PCODE": "MMR017015", "VT": "Hle Seik", "VT_PCODE": "MMR017015009", "VILLAGE": "Kyee Chaung", "VLG_PCODE": 152048.0, "VLG_MMR": "ကျီးချောင်း", "ALTVLG_ENG": null, "ALTVLG_MMR": null, "Longitude": 95.06947336, "Latitude": 16.8331253, "PCODE_V": 9.6 }, "geometry": { "type": "Point", "coordinates": [ 95.06947336, 16.8331253 ] } },
{ "type": "Feature", "properties": { "ST": "Ayeyarwady", "ST_PCODE": "MMR017", "DT": "Myaungmya", "DT_PCODE": "MMR017D003", "TS": "Einme", "TS_PCODE": "MMR017015", "VT": "Hpa Yar Gyi Kone", "VT_PCODE": "MMR017015021", "VILLAGE": "Hpa Yar Gyi Kone", "VLG_PCODE": 152314.0, "VLG_MMR": "ဘုရားကြီးကုန်း", "ALTVLG_ENG": null, "ALTVLG_MMR": null, "Longitude": 95.17954254, "Latitude": 16.9634552, "PCODE_V": 9.6 }, "geometry": { "type": "Point", "coordinates": [ 95.17954254, 16.9634552 ] } },
{ "type": "Feature", "properties": { "ST": "Ayeyarwady", "ST_PCODE": "MMR017", "DT": "Myaungmya", "DT_PCODE": "MMR017D003", "TS": "Einme", "TS_PCODE": "MMR017015", "VT": "Hpa Yar Gyi Kone", "VT_PCODE": "MMR017015021", "VILLAGE": "Sat Kwin", "VLG_PCODE": 152317.0, "VLG_MMR": "ဆပ်ကွင်း", "ALTVLG_ENG": null, "ALTVLG_MMR": null, "Longitude": 95.17723083, "Latitude": 16.94293213, "PCODE_V": 9.6 }, "geometry": { "type": "Point", "coordinates": [ 95.17723083, 16.94293213 ] } },
{ "type": "Feature", "properties": { "ST": "Ayeyarwady", "ST_PCODE": "MMR017", "DT": "Myaungmya", "DT_PCODE": "MMR017D003", "TS": "Einme", "TS_PCODE": "MMR017015", "VT": "Hpa Yar Gyi Kone", "VT_PCODE": "MMR017015021", "VILLAGE": "Sin Seik", "VLG_PCODE": 152316.0, "VLG_MMR": "ဆင်ဆိပ်", "ALTVLG_ENG": null, "ALTVLG_MMR": null, "Longitude": 95.16747259, "Latitude": 16.94405758, "PCODE_V": 9.6 }, "geometry": { "type": "Point", "coordinates": [ 95.16747259, 16.94405758 ] } },
{ "type": "Feature", "properties": { "ST": "Ayeyarwady", "ST_PCODE": "MMR017", "DT": "Myaungmya", "DT_PCODE": "MMR017D003", "TS": "Einme", "TS_PCODE": "MMR017015", "VT": "Hpa Yar Gyi Kone", "VT_PCODE": "MMR017015021", "VILLAGE": "Sin Toe", "VLG_PCODE": 152318.0, "VLG_MMR": "ဆင်တိုး", "ALTVLG_ENG": null, "ALTVLG_MMR": null, "Longitude": 95.19389343, "Latitude": 16.95343971, "PCODE_V": 9.6 }, "geometry": { "type": "Point", "coordinates": [ 95.19389343, 16.95343971 ] } },
{ "type": "Feature", "properties": { "ST": "Ayeyarwady", "ST_PCODE": "MMR017", "DT": "Myaungmya", "DT_PCODE": "MMR017D003", "TS": "Einme", "TS_PCODE": "MMR017015", "VT": "Hpa Yar Gyi Kone", "VT_PCODE": "MMR017015021", "VILLAGE": "Thin Taw", "VLG_PCODE": 152319.0, "VLG_MMR": "သင်တော", "ALTVLG_ENG": null, "ALTVLG_MMR": null, "Longitude": 95.18605042, "Latitude": 16.93989563, "PCODE_V": 9.6 }, "geometry": { "type": "Point", "coordinates": [ 95.18605042, 16.93989563 ] } },
{ "type": "Feature", "properties": { "ST": "Ayeyarwady", "ST_PCODE": "MMR017", "DT": "Myaungmya", "DT_PCODE": "MMR017D003", "TS": "Einme", "TS_PCODE": "MMR017015", "VT": "Hpa Yar Gyi Kone", "VT_PCODE": "MMR017015021", "VILLAGE": "Yae Thoe Sar Hpyu Su", "VLG_PCODE": 152315.0, "VLG_MMR": "ရေသိုးစာဖြူစု", "ALTVLG_ENG": null, "ALTVLG_MMR": null, "Longitude": 95.191959, "Latitude": 16.953744, "PCODE_V": 9.6 }, "geometry": { "type": "Point", "coordinates": [ 95.191959, 16.953744 ] } },
{ "type": "Feature", "properties": { "ST": "Ayeyarwady", "ST_PCODE": "MMR017", "DT": "Myaungmya", "DT_PCODE": "MMR017D003", "TS": "Einme", "TS_PCODE": "MMR017015", "VT": "Htan Lay Pin", "VT_PCODE": "MMR017015062", "VILLAGE": "Htan Lay Pin", "VLG_PCODE": 152607.0, "VLG_MMR": "ထန်းလေးပင်", "ALTVLG_ENG": null, "ALTVLG_MMR": null, "Longitude": 95.0688587, "Latitude": 16.66484369, "PCODE_V": 9.6 }, "geometry": { "type": "Point", "coordinates": [ 95.0688587, 16.66484369 ] } },
{ "type": "Feature", "properties": { "ST": "Ayeyarwady", "ST_PCODE": "MMR017", "DT": "Myaungmya", "DT_PCODE": "MMR017D003", "TS": "Einme", "TS_PCODE": "MMR017015", "VT": "Htan Lay Pin", "VT_PCODE": "MMR017015062", "VILLAGE": "Ma Gyi Kone", "VLG_PCODE": 152609.0, "VLG_MMR": "မကျီးကုန်း", "ALTVLG_ENG": null, "ALTVLG_MMR": null, "Longitude": 95.06269073, "Latitude": 16.68695068, "PCODE_V": 9.6 }, "geometry": { "type": "Point", "coordinates": [ 95.06269073, 16.68695068 ] } },
{ "type": "Feature", "properties": { "ST": "Ayeyarwady", "ST_PCODE": "MMR017", "DT": "Myaungmya", "DT_PCODE": "MMR017D003", "TS": "Einme", "TS_PCODE": "MMR017015", "VT": "Htan Lay Pin", "VT_PCODE": "MMR017015062", "VILLAGE": "Tha Pyay Chaung", "VLG_PCODE": 152608.0, "VLG_MMR": "သပြေချောင်း", "ALTVLG_ENG": null, "ALTVLG_MMR": null, "Longitude": 95.06494904, "Latitude": 16.67618942, "PCODE_V": 9.6 }, "geometry": { "type": "Point", "coordinates": [ 95.06494904, 16.67618942 ] } },
{ "type": "Feature", "properties": { "ST": "Ayeyarwady", "ST_PCODE": "MMR017", "DT": "Myaungmya", "DT_PCODE": "MMR017D003", "TS": "Einme", "TS_PCODE": "MMR017015", "VT": "Htan Ta Pin", "VT_PCODE": "MMR017015027", "VILLAGE": "Ah Htet Paing", "VLG_PCODE": 152649.0, "VLG_MMR": "အထက်ပိုင်း", "ALTVLG_ENG": null, "ALTVLG_MMR": null, "Longitude": 95.16721344, "Latitude": 16.84217834, "PCODE_V": 9.6 }, "geometry": { "type": "Point", "coordinates": [ 95.16721344, 16.84217834 ] } },
{ "type": "Feature", "properties": { "ST": "Ayeyarwady", "ST_PCODE": "MMR017", "DT": "Myaungmya", "DT_PCODE": "MMR017D003", "TS": "Einme", "TS_PCODE": "MMR017015", "VT": "Htan Ta Pin", "VT_PCODE": "MMR017015027", "VILLAGE": "Auk Paing", "VLG_PCODE": 152650.0, "VLG_MMR": "အောက်ပိုင်း", "ALTVLG_ENG": null, "ALTVLG_MMR": null, "Longitude": 95.17004395, "Latitude": 16.83681679, "PCODE_V": 9.6 }, "geometry": { "type": "Point", "coordinates": [ 95.17004395, 16.83681679 ] } },
{ "type": "Feature", "properties": { "ST": "Ayeyarwady", "ST_PCODE": "MMR017", "DT": "Myaungmya", "DT_PCODE": "MMR017D003", "TS": "Einme", "TS_PCODE": "MMR017015", "VT": "Htan Ta Pin", "VT_PCODE": "MMR017015027", "VILLAGE": "Htan Ta Pin", "VLG_PCODE": 152648.0, "VLG_MMR": "ထန်းတပင်", "ALTVLG_ENG": null, "ALTVLG_MMR": null, "Longitude": 95.15818272, "Latitude": 16.84912222, "PCODE_V": 9.6 }, "geometry": { "type": "Point", "coordinates": [ 95.15818272, 16.84912222 ] } },
{ "type": "Feature", "properties": { "ST": "Ayeyarwady", "ST_PCODE": "MMR017", "DT": "Myaungmya", "DT_PCODE": "MMR017D003", "TS": "Einme", "TS_PCODE": "MMR017015", "VT": "Htan Ta Pin", "VT_PCODE": "MMR017015027", "VILLAGE": "Kyee Taw Yoe", "VLG_PCODE": 152652.0, "VLG_MMR": "ကျီးတောရိုး", "ALTVLG_ENG": null, "ALTVLG_MMR": null, "Longitude": 95.15420532, "Latitude": 16.84115791, "PCODE_V": 9.6 }, "geometry": { "type": "Point", "coordinates": [ 95.15420532, 16.84115791 ] } },
{ "type": "Feature", "properties": { "ST": "Ayeyarwady", "ST_PCODE": "MMR017", "DT": "Myaungmya", "DT_PCODE": "MMR017D003", "TS": "Einme", "TS_PCODE": "MMR017015", "VT": "Htan Ta Pin", "VT_PCODE": "MMR017015027", "VILLAGE": "Kyon Kauk", "VLG_PCODE": 152651.0, "VLG_MMR": "ကျုံကောက်", "ALTVLG_ENG": null, "ALTVLG_MMR": null, "Longitude": 95.18403625000001, "Latitude": 16.83909988, "PCODE_V": 9.6 }, "geometry": { "type": "Point", "coordinates": [ 95.18403625, 16.83909988 ] } },
{ "type": "Feature", "properties": { "ST": "Ayeyarwady", "ST_PCODE": "MMR017", "DT": "Myaungmya", "DT_PCODE": "MMR017D003", "TS": "Einme", "TS_PCODE": "MMR017015", "VT": "Htan Ta Pin", "VT_PCODE": "MMR017015027", "VILLAGE": "Myet Ni Kwin", "VLG_PCODE": 152654.0, "VLG_MMR": "မျက်နီကွင်း", "ALTVLG_ENG": null, "ALTVLG_MMR": null, "Longitude": 95.17340088, "Latitude": 16.83982086, "PCODE_V": 9.6 }, "geometry": { "type": "Point", "coordinates": [ 95.17340088, 16.83982086 ] } },
{ "type": "Feature", "properties": { "ST": "Ayeyarwady", "ST_PCODE": "MMR017", "DT": "Myaungmya", "DT_PCODE": "MMR017D003", "TS": "Einme", "TS_PCODE": "MMR017015", "VT": "Htan Ta Pin", "VT_PCODE": "MMR017015027", "VILLAGE": "Naung Khu Lar", "VLG_PCODE": 152653.0, "VLG_MMR": "နောင်ခူလာ", "ALTVLG_ENG": null, "ALTVLG_MMR": null, "Longitude": 95.16015625, "Latitude": 16.83862686, "PCODE_V": 9.6 }, "geometry": { "type": "Point", "coordinates": [ 95.16015625, 16.83862686 ] } },
{ "type": "Feature", "properties": { "ST": "Ayeyarwady", "ST_PCODE": "MMR017", "DT": "Myaungmya", "DT_PCODE": "MMR017D003", "TS": "Einme", "TS_PCODE": "MMR017015", "VT": "Htein Ngu", "VT_PCODE": "MMR017015024", "VILLAGE": "Ah Nauk Su", "VLG_PCODE": 152779.0, "VLG_MMR": "အနောက်စု", "ALTVLG_ENG": null, "ALTVLG_MMR": null, "Longitude": 95.19213382, "Latitude": 16.88438642, "PCODE_V": 9.6 }, "geometry": { "type": "Point", "coordinates": [ 95.19213382, 16.88438642 ] } },
{ "type": "Feature", "properties": { "ST": "Ayeyarwady", "ST_PCODE": "MMR017", "DT": "Myaungmya", "DT_PCODE": "MMR017D003", "TS": "Einme", "TS_PCODE": "MMR017015", "VT": "Htein Ngu", "VT_PCODE": "MMR017015024", "VILLAGE": "Htein Ngu", "VLG_PCODE": 152769.0, "VLG_MMR": "ထိန်ငူ", "ALTVLG_ENG": null, "ALTVLG_MMR": null, "Longitude": 95.20565943, "Latitude": 16.88377953, "PCODE_V": 9.6 }, "geometry": { "type": "Point", "coordinates": [ 95.20565943, 16.88377953 ] } },
{ "type": "Feature", "properties": { "ST": "Ayeyarwady", "ST_PCODE": "MMR017", "DT": "Myaungmya", "DT_PCODE": "MMR017D003", "TS": "Einme", "TS_PCODE": "MMR017015", "VT": "Htein Ngu", "VT_PCODE": "MMR017015024", "VILLAGE": "Htein Ngu Kan Nar", "VLG_PCODE": 152775.0, "VLG_MMR": "ထိန်ငူကမ်းနား", "ALTVLG_ENG": null, "ALTVLG_MMR": null, "Longitude": 95.21353912, "Latitude": 16.88714981, "PCODE_V": 9.6 }, "geometry": { "type": "Point", "coordinates": [ 95.21353912, 16.88714981 ] } },
{ "type": "Feature", "properties": { "ST": "Ayeyarwady", "ST_PCODE": "MMR017", "DT": "Myaungmya", "DT_PCODE": "MMR017D003", "TS": "Einme", "TS_PCODE": "MMR017015", "VT": "Htein Ngu", "VT_PCODE": "MMR017015024", "VILLAGE": "Kyaung Su", "VLG_PCODE": 152772.0, "VLG_MMR": "ကျောင်းစု", "ALTVLG_ENG": null, "ALTVLG_MMR": null, "Longitude": 95.18761029, "Latitude": 16.88098382, "PCODE_V": 9.6 }, "geometry": { "type": "Point", "coordinates": [ 95.18761029, 16.88098382 ] } },
{ "type": "Feature", "properties": { "ST": "Ayeyarwady", "ST_PCODE": "MMR017", "DT": "Myaungmya", "DT_PCODE": "MMR017D003", "TS": "Einme", "TS_PCODE": "MMR017015", "VT": "Htein Ngu", "VT_PCODE": "MMR017015024", "VILLAGE": "Kyin Thet", "VLG_PCODE": 152774.0, "VLG_MMR": "ကျင်သက်", "ALTVLG_ENG": null, "ALTVLG_MMR": null, "Longitude": 95.23312699, "Latitude": 16.87297086, "PCODE_V": 9.6 }, "geometry": { "type": "Point", "coordinates": [ 95.23312699, 16.87297086 ] } },
{ "type": "Feature", "properties": { "ST": "Ayeyarwady", "ST_PCODE": "MMR017", "DT": "Myaungmya", "DT_PCODE": "MMR017D003", "TS": "Einme", "TS_PCODE": "MMR017015", "VT": "Htein Ngu", "VT_PCODE": "MMR017015024", "VILLAGE": "Kyon Pa Di", "VLG_PCODE": 152770.0, "VLG_MMR": "ကျုံပဒီ", "ALTVLG_ENG": null, "ALTVLG_MMR": null, "Longitude": 95.19725248, "Latitude": 16.86998624, "PCODE_V": 9.6 }, "geometry": { "type": "Point", "coordinates": [ 95.19725248, 16.86998624 ] } },
{ "type": "Feature", "properties": { "ST": "Ayeyarwady", "ST_PCODE": "MMR017", "DT": "Myaungmya", "DT_PCODE": "MMR017D003", "TS": "Einme", "TS_PCODE": "MMR017015", "VT": "Htein Ngu", "VT_PCODE": "MMR017015024", "VILLAGE": "Kywe Lan", "VLG_PCODE": 152778.0, "VLG_MMR": "ကျွဲလမ်း", "ALTVLG_ENG": null, "ALTVLG_MMR": null, "Longitude": 95.18965368000001, "Latitude": 16.88982406, "PCODE_V": 9.6 }, "geometry": { "type": "Point", "coordinates": [ 95.18965368, 16.88982406 ] } },
{ "type": "Feature", "properties": { "ST": "Ayeyarwady", "ST_PCODE": "MMR017", "DT": "Myaungmya", "DT_PCODE": "MMR017D003", "TS": "Einme", "TS_PCODE": "MMR017015", "VT": "Htein Ngu", "VT_PCODE": "MMR017015024", "VILLAGE": "Mar La Kar Kone", "VLG_PCODE": 152773.0, "VLG_MMR": "မာလကာကုန်း", "ALTVLG_ENG": null, "ALTVLG_MMR": null, "Longitude": 95.20226288000001, "Latitude": 16.88832092, "PCODE_V": 9.6 }, "geometry": { "type": "Point", "coordinates": [ 95.20226288, 16.88832092 ] } },
{ "type": "Feature", "properties": { "ST": "Ayeyarwady", "ST_PCODE": "MMR017", "DT": "Myaungmya", "DT_PCODE": "MMR017D003", "TS": "Einme", "TS_PCODE": "MMR017015", "VT": "Htein Ngu", "VT_PCODE": "MMR017015024", "VILLAGE": "U Yin Su", "VLG_PCODE": 152771.0, "VLG_MMR": "ဥယျာဉ်စု", "ALTVLG_ENG": null, "ALTVLG_MMR": null, "Longitude": 95.19096186, "Latitude": 16.86777081, "PCODE_V": 9.6 }, "geometry": { "type": "Point", "coordinates": [ 95.19096186, 16.86777081 ] } },
{ "type": "Feature", "properties": { "ST": "Ayeyarwady", "ST_PCODE": "MMR017", "DT": "Myaungmya", "DT_PCODE": "MMR017D003", "TS": "Einme", "TS_PCODE": "MMR017015", "VT": "Inn Ma", "VT_PCODE": "MMR017015012", "VILLAGE": "Ah Su Lay", "VLG_PCODE": 153055.0, "VLG_MMR": "အစုလေး", "ALTVLG_ENG": null, "ALTVLG_MMR": null, "Longitude": 95.10479479, "Latitude": 16.89051764, "PCODE_V": 9.6 }, "geometry": { "type": "Point", "coordinates": [ 95.10479479, 16.89051764 ] } },
{ "type": "Feature", "properties": { "ST": "Ayeyarwady", "ST_PCODE": "MMR017", "DT": "Myaungmya", "DT_PCODE": "MMR017D003", "TS": "Einme", "TS_PCODE": "MMR017015", "VT": "Inn Ma", "VT_PCODE": "MMR017015012", "VILLAGE": "Inn Ma", "VLG_PCODE": 153050.0, "VLG_MMR": "အင်းမ", "ALTVLG_ENG": null, "ALTVLG_MMR": null, "Longitude": 95.10025787, "Latitude": 16.89408302, "PCODE_V": 9.6 }, "geometry": { "type": "Point", "coordinates": [ 95.10025787, 16.89408302 ] } },
{ "type": "Feature", "properties": { "ST": "Ayeyarwady", "ST_PCODE": "MMR017", "DT": "Myaungmya", "DT_PCODE": "MMR017D003", "TS": "Einme", "TS_PCODE": "MMR017015", "VT": "Inn Ma", "VT_PCODE": "MMR017015012", "VILLAGE": "Koe Taung Byaik", "VLG_PCODE": 153051.0, "VLG_MMR": "ကိုးတောင်ဗျိုက်", "ALTVLG_ENG": null, "ALTVLG_MMR": null, "Longitude": 95.08982388, "Latitude": 16.90015517, "PCODE_V": 9.6 }, "geometry": { "type": "Point", "coordinates": [ 95.08982388, 16.90015517 ] } },
{ "type": "Feature", "properties": { "ST": "Ayeyarwady", "ST_PCODE": "MMR017", "DT": "Myaungmya", "DT_PCODE": "MMR017D003", "TS": "Einme", "TS_PCODE": "MMR017015", "VT": "Inn Ma", "VT_PCODE": "MMR017015012", "VILLAGE": "Kywe Lan", "VLG_PCODE": 153053.0, "VLG_MMR": "ကျွဲလမ်း", "ALTVLG_ENG": null, "ALTVLG_MMR": null, "Longitude": 95.09322612, "Latitude": 16.88669405, "PCODE_V": 9.6 }, "geometry": { "type": "Point", "coordinates": [ 95.09322612, 16.88669405 ] } },
{ "type": "Feature", "properties": { "ST": "Ayeyarwady", "ST_PCODE": "MMR017", "DT": "Myaungmya", "DT_PCODE": "MMR017D003", "TS": "Einme", "TS_PCODE": "MMR017015", "VT": "Inn Ma", "VT_PCODE": "MMR017015012", "VILLAGE": "Ma Yan Kone", "VLG_PCODE": 153052.0, "VLG_MMR": "မရမ်းကုန်း", "ALTVLG_ENG": null, "ALTVLG_MMR": null, "Longitude": 95.09701727, "Latitude": 16.89458857, "PCODE_V": 9.6 }, "geometry": { "type": "Point", "coordinates": [ 95.09701727, 16.89458857 ] } },
{ "type": "Feature", "properties": { "ST": "Ayeyarwady", "ST_PCODE": "MMR017", "DT": "Myaungmya", "DT_PCODE": "MMR017D003", "TS": "Einme", "TS_PCODE": "MMR017015", "VT": "Inn Ma", "VT_PCODE": "MMR017015012", "VILLAGE": "Thar Yar Kone", "VLG_PCODE": 153054.0, "VLG_MMR": "သာယာကုန်း", "ALTVLG_ENG": null, "ALTVLG_MMR": null, "Longitude": 95.08151245000001, "Latitude": 16.88973999, "PCODE_V": 9.6 }, "geometry": { "type": "Point", "coordinates": [ 95.08151245, 16.88973999 ] } },
{ "type": "Feature", "properties": { "ST": "Ayeyarwady", "ST_PCODE": "MMR017", "DT": "Myaungmya", "DT_PCODE": "MMR017D003", "TS": "Einme", "TS_PCODE": "MMR017015", "VT": "Inn Ta Mi", "VT_PCODE": "MMR017015028", "VILLAGE": "Inn Ta Mi", "VLG_PCODE": 153092.0, "VLG_MMR": "အင်းတမိ", "ALTVLG_ENG": null, "ALTVLG_MMR": null, "Longitude": 95.16362762, "Latitude": 16.81598854, "PCODE_V": 9.6 }, "geometry": { "type": "Point", "coordinates": [ 95.16362762, 16.81598854 ] } },
{ "type": "Feature", "properties": { "ST": "Ayeyarwady", "ST_PCODE": "MMR017", "DT": "Myaungmya", "DT_PCODE": "MMR017D003", "TS": "Einme", "TS_PCODE": "MMR017015", "VT": "Inn Ta Mi", "VT_PCODE": "MMR017015028", "VILLAGE": "Inn Ta Mi (North)", "VLG_PCODE": 153097.0, "VLG_MMR": "အင်းတမိ (မြောက်)", "ALTVLG_ENG": null, "ALTVLG_MMR": null, "Longitude": 95.16275024, "Latitude": 16.82849693, "PCODE_V": 9.6 }, "geometry": { "type": "Point", "coordinates": [ 95.16275024, 16.82849693 ] } },
{ "type": "Feature", "properties": { "ST": "Ayeyarwady", "ST_PCODE": "MMR017", "DT": "Myaungmya", "DT_PCODE": "MMR017D003", "TS": "Einme", "TS_PCODE": "MMR017015", "VT": "Inn Ta Mi", "VT_PCODE": "MMR017015028", "VILLAGE": "Inn Ta Mi Shan Su", "VLG_PCODE": 153093.0, "VLG_MMR": "အင်းတမိရှမ်းစု", "ALTVLG_ENG": null, "ALTVLG_MMR": null, "Longitude": 95.17087555000001, "Latitude": 16.80798912, "PCODE_V": 9.6 }, "geometry": { "type": "Point", "coordinates": [ 95.17087555, 16.80798912 ] } },
{ "type": "Feature", "properties": { "ST": "Ayeyarwady", "ST_PCODE": "MMR017", "DT": "Myaungmya", "DT_PCODE": "MMR017D003", "TS": "Einme", "TS_PCODE": "MMR017015", "VT": "Inn Ta Mi", "VT_PCODE": "MMR017015028", "VILLAGE": "Inn Ta Mi Zee Kone", "VLG_PCODE": 153096.0, "VLG_MMR": "အင်းတမိဇီးကုန်း", "ALTVLG_ENG": null, "ALTVLG_MMR": null, "Longitude": 95.16816711, "Latitude": 16.82965088, "PCODE_V": 9.6 }, "geometry": { "type": "Point", "coordinates": [ 95.16816711, 16.82965088 ] } },
{ "type": "Feature", "properties": { "ST": "Ayeyarwady", "ST_PCODE": "MMR017", "DT": "Myaungmya", "DT_PCODE": "MMR017D003", "TS": "Einme", "TS_PCODE": "MMR017015", "VT": "Inn Ta Mi", "VT_PCODE": "MMR017015028", "VILLAGE": "Naung Khu Lar", "VLG_PCODE": 153094.0, "VLG_MMR": "နောင်ခူလာ", "ALTVLG_ENG": null, "ALTVLG_MMR": null, "Longitude": 95.16062164, "Latitude": 16.83058929, "PCODE_V": 9.6 }, "geometry": { "type": "Point", "coordinates": [ 95.16062164, 16.83058929 ] } },
{ "type": "Feature", "properties": { "ST": "Ayeyarwady", "ST_PCODE": "MMR017", "DT": "Myaungmya", "DT_PCODE": "MMR017D003", "TS": "Einme", "TS_PCODE": "MMR017015", "VT": "Inn Ta Mi", "VT_PCODE": "MMR017015028", "VILLAGE": "Naung Khu Lar (West)", "VLG_PCODE": 153095.0, "VLG_MMR": "နောင်ခူလာ (အနောက်)", "ALTVLG_ENG": null, "ALTVLG_MMR": null, "Longitude": 95.15830294, "Latitude": 16.82764126, "PCODE_V": 9.6 }, "geometry": { "type": "Point", "coordinates": [ 95.15830294, 16.82764126 ] } },
{ "type": "Feature", "properties": { "ST": "Ayeyarwady", "ST_PCODE": "MMR017", "DT": "Myaungmya", "DT_PCODE": "MMR017D003", "TS": "Einme", "TS_PCODE": "MMR017015", "VT": "Inn Ta Mi Thet Kei", "VT_PCODE": "MMR017015038", "VILLAGE": "Inn Ta Mi Thet Kei", "VLG_PCODE": 153101.0, "VLG_MMR": "အင်းတမိသက္ကယ်", "ALTVLG_ENG": null, "ALTVLG_MMR": null, "Longitude": 95.15893905, "Latitude": 16.79749526, "PCODE_V": 9.6 }, "geometry": { "type": "Point", "coordinates": [ 95.15893905, 16.79749526 ] } },
{ "type": "Feature", "properties": { "ST": "Ayeyarwady", "ST_PCODE": "MMR017", "DT": "Myaungmya", "DT_PCODE": "MMR017D003", "TS": "Einme", "TS_PCODE": "MMR017015", "VT": "Inn Ta Mi Thet Kei", "VT_PCODE": "MMR017015038", "VILLAGE": "Ka Zin Yoe", "VLG_PCODE": 153102.0, "VLG_MMR": "ကဇင်းရိုး", "ALTVLG_ENG": null, "ALTVLG_MMR": null, "Longitude": 95.14289093, "Latitude": 16.80526543, "PCODE_V": 9.6 }, "geometry": { "type": "Point", "coordinates": [ 95.14289093, 16.80526543 ] } },
{ "type": "Feature", "properties": { "ST": "Ayeyarwady", "ST_PCODE": "MMR017", "DT": "Myaungmya", "DT_PCODE": "MMR017D003", "TS": "Einme", "TS_PCODE": "MMR017015", "VT": "Inn Ta Mi Thet Kei", "VT_PCODE": "MMR017015038", "VILLAGE": "Thet Kei", "VLG_PCODE": 153103.0, "VLG_MMR": "သက္ကယ်", "ALTVLG_ENG": "Thet Kei Kone", "ALTVLG_MMR": "သက္ကယ်ကုန်း", "Longitude": 95.13478602000001, "Latitude": 16.78905744, "PCODE_V": 9.6 }, "geometry": { "type": "Point", "coordinates": [ 95.13478602, 16.78905744 ] } },
{ "type": "Feature", "properties": { "ST": "Ayeyarwady", "ST_PCODE": "MMR017", "DT": "Myaungmya", "DT_PCODE": "MMR017D003", "TS": "Einme", "TS_PCODE": "MMR017015", "VT": "Ka Man Ta Khun Taing", "VT_PCODE": "MMR017015034", "VILLAGE": "Ka Man Ta Khun Taing", "VLG_PCODE": 153283.0, "VLG_MMR": "ကမန်းတခွန်တိုင်", "ALTVLG_ENG": null, "ALTVLG_MMR": null, "Longitude": 95.17389657, "Latitude": 16.76440182, "PCODE_V": 9.6 }, "geometry": { "type": "Point", "coordinates": [ 95.17389657, 16.76440182 ] } },
{ "type": "Feature", "properties": { "ST": "Ayeyarwady", "ST_PCODE": "MMR017", "DT": "Myaungmya", "DT_PCODE": "MMR017D003", "TS": "Einme", "TS_PCODE": "MMR017015", "VT": "Ka Man Taung", "VT_PCODE": "MMR017015035", "VILLAGE": "Ka Man Taung", "VLG_PCODE": 153284.0, "VLG_MMR": "ကမန်းတောင်", "ALTVLG_ENG": null, "ALTVLG_MMR": null, "Longitude": 95.14639858, "Latitude": 16.76341425, "PCODE_V": 9.6 }, "geometry": { "type": "Point", "coordinates": [ 95.14639858, 16.76341425 ] } },
{ "type": "Feature", "properties": { "ST": "Ayeyarwady", "ST_PCODE": "MMR017", "DT": "Myaungmya", "DT_PCODE": "MMR017D003", "TS": "Einme", "TS_PCODE": "MMR017015", "VT": "Ka Man Taung", "VT_PCODE": "MMR017015035", "VILLAGE": "Kwin Baw", "VLG_PCODE": 153287.0, "VLG_MMR": "ကွင်းဘော", "ALTVLG_ENG": null, "ALTVLG_MMR": null, "Longitude": 95.13311181, "Latitude": 16.76945351, "PCODE_V": 9.6 }, "geometry": { "type": "Point", "coordinates": [ 95.13311181, 16.76945351 ] } },
{ "type": "Feature", "properties": { "ST": "Ayeyarwady", "ST_PCODE": "MMR017", "DT": "Myaungmya", "DT_PCODE": "MMR017D003", "TS": "Einme", "TS_PCODE": "MMR017015", "VT": "Ka Man Taung", "VT_PCODE": "MMR017015035", "VILLAGE": "Ohn Taw Su", "VLG_PCODE": 153286.0, "VLG_MMR": "အုံးတောစု", "ALTVLG_ENG": null, "ALTVLG_MMR": null, "Longitude": 95.15686434, "Latitude": 16.76520589, "PCODE_V": 9.6 }, "geometry": { "type": "Point", "coordinates": [ 95.15686434, 16.76520589 ] } },
{ "type": "Feature", "properties": { "ST": "Ayeyarwady", "ST_PCODE": "MMR017", "DT": "Myaungmya", "DT_PCODE": "MMR017D003", "TS": "Einme", "TS_PCODE": "MMR017015", "VT": "Ka Man Taung", "VT_PCODE": "MMR017015035", "VILLAGE": "Yae Kyaw", "VLG_PCODE": 153285.0, "VLG_MMR": "ရေကျော်", "ALTVLG_ENG": null, "ALTVLG_MMR": null, "Longitude": 95.13471222, "Latitude": 16.75748444, "PCODE_V": 9.6 }, "geometry": { "type": "Point", "coordinates": [ 95.13471222, 16.75748444 ] } },
{ "type": "Feature", "properties": { "ST": "Ayeyarwady", "ST_PCODE": "MMR017", "DT": "Myaungmya", "DT_PCODE": "MMR017D003", "TS": "Einme", "TS_PCODE": "MMR017015", "VT": "Ka Nyin Kone Gyi", "VT_PCODE": "MMR017015056", "VILLAGE": "Chaung Hpyar", "VLG_PCODE": 153418.0, "VLG_MMR": "ချောင်းဖျား", "ALTVLG_ENG": null, "ALTVLG_MMR": null, "Longitude": 95.01285651000001, "Latitude": 16.77612034, "PCODE_V": 9.6 }, "geometry": { "type": "Point", "coordinates": [ 95.01285651, 16.77612034 ] } },
{ "type": "Feature", "properties": { "ST": "Ayeyarwady", "ST_PCODE": "MMR017", "DT": "Myaungmya", "DT_PCODE": "MMR017D003", "TS": "Einme", "TS_PCODE": "MMR017015", "VT": "Ka Nyin Kone Gyi", "VT_PCODE": "MMR017015056", "VILLAGE": "Ka Nyin Kone Gyi", "VLG_PCODE": 153417.0, "VLG_MMR": "ကညင်ကုန်းကြီး", "ALTVLG_ENG": "Ka Nyin Kone", "ALTVLG_MMR": "ကညင်ကုန်း", "Longitude": 95.0164566, "Latitude": 16.7510891, "PCODE_V": 9.6 }, "geometry": { "type": "Point", "coordinates": [ 95.0164566, 16.7510891 ] } },
{ "type": "Feature", "properties": { "ST": "Ayeyarwady", "ST_PCODE": "MMR017", "DT": "Myaungmya", "DT_PCODE": "MMR017D003", "TS": "Einme", "TS_PCODE": "MMR017015", "VT": "Ka Nyin Kone Gyi", "VT_PCODE": "MMR017015056", "VILLAGE": "Myin Ka", "VLG_PCODE": 153419.0, "VLG_MMR": "မြင်းက", "ALTVLG_ENG": null, "ALTVLG_MMR": null, "Longitude": 95.00604543, "Latitude": 16.74895966, "PCODE_V": 9.6 }, "geometry": { "type": "Point", "coordinates": [ 95.00604543, 16.74895966 ] } },
{ "type": "Feature", "properties": { "ST": "Ayeyarwady", "ST_PCODE": "MMR017", "DT": "Myaungmya", "DT_PCODE": "MMR017D003", "TS": "Einme", "TS_PCODE": "MMR017015", "VT": "Ka Nyin Kone Gyi", "VT_PCODE": "MMR017015056", "VILLAGE": "Pauk Tan", "VLG_PCODE": 153420.0, "VLG_MMR": "ပေါက်တန်း", "ALTVLG_ENG": null, "ALTVLG_MMR": null, "Longitude": 95.00470341, "Latitude": 16.76859816, "PCODE_V": 9.6 }, "geometry": { "type": "Point", "coordinates": [ 95.00470341, 16.76859816 ] } },
{ "type": "Feature", "properties": { "ST": "Ayeyarwady", "ST_PCODE": "MMR017", "DT": "Myaungmya", "DT_PCODE": "MMR017D003", "TS": "Einme", "TS_PCODE": "MMR017015", "VT": "Ka Nyin Kwin", "VT_PCODE": "MMR017015079", "VILLAGE": "Ah Lel Su", "VLG_PCODE": 153451.0, "VLG_MMR": "အလယ်စု", "ALTVLG_ENG": null, "ALTVLG_MMR": null, "Longitude": 95.14086914000001, "Latitude": 16.71588707, "PCODE_V": 9.6 }, "geometry": { "type": "Point", "coordinates": [ 95.14086914, 16.71588707 ] } },
{ "type": "Feature", "properties": { "ST": "Ayeyarwady", "ST_PCODE": "MMR017", "DT": "Myaungmya", "DT_PCODE": "MMR017D003", "TS": "Einme", "TS_PCODE": "MMR017015", "VT": "Ka Nyin Kwin", "VT_PCODE": "MMR017015079", "VILLAGE": "Ah Nauk Su", "VLG_PCODE": 153453.0, "VLG_MMR": "အနောက်စု", "ALTVLG_ENG": null, "ALTVLG_MMR": null, "Longitude": 95.14857558, "Latitude": 16.71974775, "PCODE_V": 9.6 }, "geometry": { "type": "Point", "coordinates": [ 95.14857558, 16.71974775 ] } },
{ "type": "Feature", "properties": { "ST": "Ayeyarwady", "ST_PCODE": "MMR017", "DT": "Myaungmya", "DT_PCODE": "MMR017D003", "TS": "Einme", "TS_PCODE": "MMR017015", "VT": "Ka Nyin Kwin", "VT_PCODE": "MMR017015079", "VILLAGE": "Ka Nyin Chaung", "VLG_PCODE": 153452.0, "VLG_MMR": "ကညင်ချောင်း", "ALTVLG_ENG": null, "ALTVLG_MMR": null, "Longitude": 95.150484, "Latitude": 16.725218, "PCODE_V": 9.6 }, "geometry": { "type": "Point", "coordinates": [ 95.150484, 16.725218 ] } },
{ "type": "Feature", "properties": { "ST": "Ayeyarwady", "ST_PCODE": "MMR017", "DT": "Myaungmya", "DT_PCODE": "MMR017D003", "TS": "Einme", "TS_PCODE": "MMR017015", "VT": "Ka Nyin Kwin", "VT_PCODE": "MMR017015079", "VILLAGE": "Ka Nyin Kwin", "VLG_PCODE": 153448.0, "VLG_MMR": "ကညင်ကွင်း", "ALTVLG_ENG": null, "ALTVLG_MMR": null, "Longitude": 95.14749146, "Latitude": 16.71450615, "PCODE_V": 9.6 }, "geometry": { "type": "Point", "coordinates": [ 95.14749146, 16.71450615 ] } },
{ "type": "Feature", "properties": { "ST": "Ayeyarwady", "ST_PCODE": "MMR017", "DT": "Myaungmya", "DT_PCODE": "MMR017D003", "TS": "Einme", "TS_PCODE": "MMR017015", "VT": "Ka Nyin Kwin", "VT_PCODE": "MMR017015079", "VILLAGE": "Pyin Ma Ngu", "VLG_PCODE": 153449.0, "VLG_MMR": "ပျဉ်းမငူ", "ALTVLG_ENG": null, "ALTVLG_MMR": null, "Longitude": 95.1349793, "Latitude": 16.71166579, "PCODE_V": 9.6 }, "geometry": { "type": "Point", "coordinates": [ 95.1349793, 16.71166579 ] } },
{ "type": "Feature", "properties": { "ST": "Ayeyarwady", "ST_PCODE": "MMR017", "DT": "Myaungmya", "DT_PCODE": "MMR017D003", "TS": "Einme", "TS_PCODE": "MMR017015", "VT": "Ka Nyin Kwin", "VT_PCODE": "MMR017015079", "VILLAGE": "Thone Gwa", "VLG_PCODE": 153450.0, "VLG_MMR": "သုံးခွ", "ALTVLG_ENG": null, "ALTVLG_MMR": null, "Longitude": 95.15865763, "Latitude": 16.7204496, "PCODE_V": 9.6 }, "geometry": { "type": "Point", "coordinates": [ 95.15865763, 16.7204496 ] } },
{ "type": "Feature", "properties": { "ST": "Ayeyarwady", "ST_PCODE": "MMR017", "DT": "Myaungmya", "DT_PCODE": "MMR017D003", "TS": "Einme", "TS_PCODE": "MMR017015", "VT": "Ka Nyin Kwin", "VT_PCODE": "MMR017015079", "VILLAGE": "War Yon Su", "VLG_PCODE": 153454.0, "VLG_MMR": "ဝါးရုံစု", "ALTVLG_ENG": null, "ALTVLG_MMR": null, "Longitude": 95.12725067, "Latitude": 16.71861076, "PCODE_V": 9.6 }, "geometry": { "type": "Point", "coordinates": [ 95.12725067, 16.71861076 ] } },
{ "type": "Feature", "properties": { "ST": "Ayeyarwady", "ST_PCODE": "MMR017", "DT": "Myaungmya", "DT_PCODE": "MMR017D003", "TS": "Einme", "TS_PCODE": "MMR017015", "VT": "Kan Gyi Daunt", "VT_PCODE": "MMR017015026", "VILLAGE": "Kaing Kwin", "VLG_PCODE": 153846.0, "VLG_MMR": "ကိုင်းကွင်း", "ALTVLG_ENG": null, "ALTVLG_MMR": null, "Longitude": 95.17749023, "Latitude": 16.85456085, "PCODE_V": 9.6 }, "geometry": { "type": "Point", "coordinates": [ 95.17749023, 16.85456085 ] } },
{ "type": "Feature", "properties": { "ST": "Ayeyarwady", "ST_PCODE": "MMR017", "DT": "Myaungmya", "DT_PCODE": "MMR017D003", "TS": "Einme", "TS_PCODE": "MMR017015", "VT": "Kan Gyi Daunt", "VT_PCODE": "MMR017015026", "VILLAGE": "Kan Gyi Daunt", "VLG_PCODE": 153843.0, "VLG_MMR": "ကံကြီးဒေါင့်", "ALTVLG_ENG": null, "ALTVLG_MMR": null, "Longitude": 95.17624664, "Latitude": 16.8628521, "PCODE_V": 9.6 }, "geometry": { "type": "Point", "coordinates": [ 95.17624664, 16.8628521 ] } },
{ "type": "Feature", "properties": { "ST": "Ayeyarwady", "ST_PCODE": "MMR017", "DT": "Myaungmya", "DT_PCODE": "MMR017D003", "TS": "Einme", "TS_PCODE": "MMR017015", "VT": "Kan Gyi Daunt", "VT_PCODE": "MMR017015026", "VILLAGE": "Kan Gyi Daunt Kone", "VLG_PCODE": 153845.0, "VLG_MMR": "ကံကြီးဒေါင့်ကုန်း", "ALTVLG_ENG": null, "ALTVLG_MMR": null, "Longitude": 95.16641235, "Latitude": 16.85694504, "PCODE_V": 9.6 }, "geometry": { "type": "Point", "coordinates": [ 95.16641235, 16.85694504 ] } },
{ "type": "Feature", "properties": { "ST": "Ayeyarwady", "ST_PCODE": "MMR017", "DT": "Myaungmya", "DT_PCODE": "MMR017D003", "TS": "Einme", "TS_PCODE": "MMR017015", "VT": "Kan Gyi Daunt", "VT_PCODE": "MMR017015026", "VILLAGE": "Kone Su", "VLG_PCODE": 153847.0, "VLG_MMR": "ကုန်းစု", "ALTVLG_ENG": null, "ALTVLG_MMR": null, "Longitude": 95.20786889, "Latitude": 16.84145095, "PCODE_V": 9.6 }, "geometry": { "type": "Point", "coordinates": [ 95.20786889, 16.84145095 ] } },
{ "type": "Feature", "properties": { "ST": "Ayeyarwady", "ST_PCODE": "MMR017", "DT": "Myaungmya", "DT_PCODE": "MMR017D003", "TS": "Einme", "TS_PCODE": "MMR017015", "VT": "Kan Gyi Daunt", "VT_PCODE": "MMR017015026", "VILLAGE": "Tar Kone (East)", "VLG_PCODE": 153848.0, "VLG_MMR": "တာကုန်း (အရှေ့)", "ALTVLG_ENG": null, "ALTVLG_MMR": null, "Longitude": 95.20505524, "Latitude": 16.86008453, "PCODE_V": 9.6 }, "geometry": { "type": "Point", "coordinates": [ 95.20505524, 16.86008453 ] } },
{ "type": "Feature", "properties": { "ST": "Ayeyarwady", "ST_PCODE": "MMR017", "DT": "Myaungmya", "DT_PCODE": "MMR017D003", "TS": "Einme", "TS_PCODE": "MMR017015", "VT": "Kan Gyi Daunt", "VT_PCODE": "MMR017015026", "VILLAGE": "Tar Kone (West)", "VLG_PCODE": 153849.0, "VLG_MMR": "တာကုန်း (အနောက်)", "ALTVLG_ENG": null, "ALTVLG_MMR": null, "Longitude": 95.19047546, "Latitude": 16.86176872, "PCODE_V": 9.6 }, "geometry": { "type": "Point", "coordinates": [ 95.19047546, 16.86176872 ] } },
{ "type": "Feature", "properties": { "ST": "Ayeyarwady", "ST_PCODE": "MMR017", "DT": "Myaungmya", "DT_PCODE": "MMR017D003", "TS": "Einme", "TS_PCODE": "MMR017015", "VT": "Kan Gyi Daunt", "VT_PCODE": "MMR017015026", "VILLAGE": "Yae Twin Kone", "VLG_PCODE": 153844.0, "VLG_MMR": "ရေတွင်းကုန်း", "ALTVLG_ENG": null, "ALTVLG_MMR": null, "Longitude": 95.18157959, "Latitude": 16.84453964, "PCODE_V": 9.6 }, "geometry": { "type": "Point", "coordinates": [ 95.18157959, 16.84453964 ] } },
{ "type": "Feature", "properties": { "ST": "Ayeyarwady", "ST_PCODE": "MMR017", "DT": "Myaungmya", "DT_PCODE": "MMR017D003", "TS": "Einme", "TS_PCODE": "MMR017015", "VT": "Kan Gyi Daunt Kone", "VT_PCODE": "MMR017015025", "VILLAGE": "Kan Gyi Daunt Kone", "VLG_PCODE": 153850.0, "VLG_MMR": "ကံကြီးဒေါင့်ကုန်း", "ALTVLG_ENG": null, "ALTVLG_MMR": null, "Longitude": 95.17616272, "Latitude": 16.87130737, "PCODE_V": 9.6 }, "geometry": { "type": "Point", "coordinates": [ 95.17616272, 16.87130737 ] } },
{ "type": "Feature", "properties": { "ST": "Ayeyarwady", "ST_PCODE": "MMR017", "DT": "Myaungmya", "DT_PCODE": "MMR017D003", "TS": "Einme", "TS_PCODE": "MMR017015", "VT": "Kan Gyi Daunt Kone", "VT_PCODE": "MMR017015025", "VILLAGE": "Kyauk Waing", "VLG_PCODE": 153854.0, "VLG_MMR": "ကျောက်ဝိုင်း", "ALTVLG_ENG": null, "ALTVLG_MMR": null, "Longitude": 95.17711502, "Latitude": 16.87386951, "PCODE_V": 9.6 }, "geometry": { "type": "Point", "coordinates": [ 95.17711502, 16.87386951 ] } },
{ "type": "Feature", "properties": { "ST": "Ayeyarwady", "ST_PCODE": "MMR017", "DT": "Myaungmya", "DT_PCODE": "MMR017D003", "TS": "Einme", "TS_PCODE": "MMR017015", "VT": "Kan Gyi Daunt Kone", "VT_PCODE": "MMR017015025", "VILLAGE": "Pakokku Su", "VLG_PCODE": 153855.0, "VLG_MMR": "ပခုက္ကူစု", "ALTVLG_ENG": null, "ALTVLG_MMR": null, "Longitude": 95.17654419, "Latitude": 16.87652016, "PCODE_V": 9.6 }, "geometry": { "type": "Point", "coordinates": [ 95.17654419, 16.87652016 ] } },
{ "type": "Feature", "properties": { "ST": "Ayeyarwady", "ST_PCODE": "MMR017", "DT": "Myaungmya", "DT_PCODE": "MMR017D003", "TS": "Einme", "TS_PCODE": "MMR017015", "VT": "Kan Gyi Daunt Kone", "VT_PCODE": "MMR017015025", "VILLAGE": "Taung su", "VLG_PCODE": 153852.0, "VLG_MMR": "တောင်စု", "ALTVLG_ENG": null, "ALTVLG_MMR": null, "Longitude": 95.18225098000001, "Latitude": 16.87548637, "PCODE_V": 9.6 }, "geometry": { "type": "Point", "coordinates": [ 95.18225098, 16.87548637 ] } },
{ "type": "Feature", "properties": { "ST": "Ayeyarwady", "ST_PCODE": "MMR017", "DT": "Myaungmya", "DT_PCODE": "MMR017D003", "TS": "Einme", "TS_PCODE": "MMR017015", "VT": "Kan Gyi Daunt Kone", "VT_PCODE": "MMR017015025", "VILLAGE": "Taung Yar Kone", "VLG_PCODE": 153851.0, "VLG_MMR": "တောင်ယာကုန်း", "ALTVLG_ENG": null, "ALTVLG_MMR": null, "Longitude": 95.17620839, "Latitude": 16.86693036, "PCODE_V": 9.6 }, "geometry": { "type": "Point", "coordinates": [ 95.17620839, 16.86693036 ] } },
{ "type": "Feature", "properties": { "ST": "Ayeyarwady", "ST_PCODE": "MMR017", "DT": "Myaungmya", "DT_PCODE": "MMR017D003", "TS": "Einme", "TS_PCODE": "MMR017015", "VT": "Kan Pyo", "VT_PCODE": "MMR017015076", "VILLAGE": "Hpoe Kei Chaung", "VLG_PCODE": 153584.0, "VLG_MMR": "ဖိုးကယ်ချောင်း", "ALTVLG_ENG": null, "ALTVLG_MMR": null, "Longitude": 95.06404114, "Latitude": 16.69421005, "PCODE_V": 9.6 }, "geometry": { "type": "Point", "coordinates": [ 95.06404114, 16.69421005 ] } },
{ "type": "Feature", "properties": { "ST": "Ayeyarwady", "ST_PCODE": "MMR017", "DT": "Myaungmya", "DT_PCODE": "MMR017D003", "TS": "Einme", "TS_PCODE": "MMR017015", "VT": "Kan Pyo", "VT_PCODE": "MMR017015076", "VILLAGE": "Kan Pyo", "VLG_PCODE": 153582.0, "VLG_MMR": "ကမ်းပျို", "ALTVLG_ENG": "Ka Pyo", "ALTVLG_MMR": "ကပျို", "Longitude": 95.06541934000001, "Latitude": 16.70510224, "PCODE_V": 9.6 }, "geometry": { "type": "Point", "coordinates": [ 95.06541934, 16.70510224 ] } },
{ "type": "Feature", "properties": { "ST": "Ayeyarwady", "ST_PCODE": "MMR017", "DT": "Myaungmya", "DT_PCODE": "MMR017D003", "TS": "Einme", "TS_PCODE": "MMR017015", "VT": "Kan Pyo", "VT_PCODE": "MMR017015076", "VILLAGE": "Thit To Chaung", "VLG_PCODE": 153583.0, "VLG_MMR": "သစ်တိုချောင်း", "ALTVLG_ENG": null, "ALTVLG_MMR": null, "Longitude": 95.06462007, "Latitude": 16.69139654, "PCODE_V": 9.6 }, "geometry": { "type": "Point", "coordinates": [ 95.06462007, 16.69139654 ] } },
{ "type": "Feature", "properties": { "ST": "Ayeyarwady", "ST_PCODE": "MMR017", "DT": "Myaungmya", "DT_PCODE": "MMR017D003", "TS": "Einme", "TS_PCODE": "MMR017015", "VT": "Kan Su Gyi Kyon Ma Yan", "VT_PCODE": "MMR017015063", "VILLAGE": "Kan Su Gyi", "VLG_PCODE": 153976.0, "VLG_MMR": "ကံစုကြီး", "ALTVLG_ENG": null, "ALTVLG_MMR": null, "Longitude": 95.03613772, "Latitude": 16.65008058, "PCODE_V": 9.6 }, "geometry": { "type": "Point", "coordinates": [ 95.03613772, 16.65008058 ] } },
{ "type": "Feature", "properties": { "ST": "Ayeyarwady", "ST_PCODE": "MMR017", "DT": "Myaungmya", "DT_PCODE": "MMR017D003", "TS": "Einme", "TS_PCODE": "MMR017015", "VT": "Kan Su Gyi Kyon Ma Yan", "VT_PCODE": "MMR017015063", "VILLAGE": "Kyar Hpyu Kwin", "VLG_PCODE": 153979.0, "VLG_MMR": "ကြာဖြူကွင်း", "ALTVLG_ENG": null, "ALTVLG_MMR": null, "Longitude": 95.04685211, "Latitude": 16.64363289, "PCODE_V": 9.6 }, "geometry": { "type": "Point", "coordinates": [ 95.04685211, 16.64363289 ] } },
{ "type": "Feature", "properties": { "ST": "Ayeyarwady", "ST_PCODE": "MMR017", "DT": "Myaungmya", "DT_PCODE": "MMR017D003", "TS": "Einme", "TS_PCODE": "MMR017015", "VT": "Kan Su Gyi Kyon Ma Yan", "VT_PCODE": "MMR017015063", "VILLAGE": "Kyon Thut Hpyar", "VLG_PCODE": 153978.0, "VLG_MMR": "ကျုံသွတ်ဖျား", "ALTVLG_ENG": null, "ALTVLG_MMR": null, "Longitude": 95.04877472, "Latitude": 16.65409851, "PCODE_V": 9.6 }, "geometry": { "type": "Point", "coordinates": [ 95.04877472, 16.65409851 ] } },
{ "type": "Feature", "properties": { "ST": "Ayeyarwady", "ST_PCODE": "MMR017", "DT": "Myaungmya", "DT_PCODE": "MMR017D003", "TS": "Einme", "TS_PCODE": "MMR017015", "VT": "Kan Su Gyi Kyon Ma Yan", "VT_PCODE": "MMR017015063", "VILLAGE": "Pa Dar Pa Dar", "VLG_PCODE": 153981.0, "VLG_MMR": "ပဒါပဒါ", "ALTVLG_ENG": null, "ALTVLG_MMR": null, "Longitude": 95.03572719, "Latitude": 16.68335201, "PCODE_V": 9.6 }, "geometry": { "type": "Point", "coordinates": [ 95.03572719, 16.68335201 ] } },
{ "type": "Feature", "properties": { "ST": "Ayeyarwady", "ST_PCODE": "MMR017", "DT": "Myaungmya", "DT_PCODE": "MMR017D003", "TS": "Einme", "TS_PCODE": "MMR017015", "VT": "Kan Su Gyi Kyon Ma Yan", "VT_PCODE": "MMR017015063", "VILLAGE": "Wea Daunt", "VLG_PCODE": 153982.0, "VLG_MMR": "ဝဲဒေါင့်", "ALTVLG_ENG": null, "ALTVLG_MMR": null, "Longitude": 95.01488259, "Latitude": 16.67259124, "PCODE_V": 9.6 }, "geometry": { "type": "Point", "coordinates": [ 95.01488259, 16.67259124 ] } },
{ "type": "Feature", "properties": { "ST": "Ayeyarwady", "ST_PCODE": "MMR017", "DT": "Myaungmya", "DT_PCODE": "MMR017D003", "TS": "Einme", "TS_PCODE": "MMR017015", "VT": "Kha Lauk Thaik", "VT_PCODE": "MMR017015077", "VILLAGE": "Ah Shey U Yin Su", "VLG_PCODE": 154191.0, "VLG_MMR": "အရှေ့ဥယျာဉ်စု", "ALTVLG_ENG": null, "ALTVLG_MMR": null, "Longitude": 95.09313965, "Latitude": 16.70498466, "PCODE_V": 9.6 }, "geometry": { "type": "Point", "coordinates": [ 95.09313965, 16.70498466 ] } },
{ "type": "Feature", "properties": { "ST": "Ayeyarwady", "ST_PCODE": "MMR017", "DT": "Myaungmya", "DT_PCODE": "MMR017D003", "TS": "Einme", "TS_PCODE": "MMR017015", "VT": "Kha Lauk Thaik", "VT_PCODE": "MMR017015077", "VILLAGE": "Kha Lauk Thaik", "VLG_PCODE": 154190.0, "VLG_MMR": "ခလောက်သိုက်", "ALTVLG_ENG": null, "ALTVLG_MMR": null, "Longitude": 95.08509933000001, "Latitude": 16.70568534, "PCODE_V": 9.6 }, "geometry": { "type": "Point", "coordinates": [ 95.08509933, 16.70568534 ] } },
{ "type": "Feature", "properties": { "ST": "Ayeyarwady", "ST_PCODE": "MMR017", "DT": "Myaungmya", "DT_PCODE": "MMR017D003", "TS": "Einme", "TS_PCODE": "MMR017015", "VT": "Khat Ti Ya", "VT_PCODE": "MMR017015040", "VILLAGE": "Khat Ti Ya", "VLG_PCODE": 154312.0, "VLG_MMR": "ခတ္တိယ", "ALTVLG_ENG": null, "ALTVLG_MMR": null, "Longitude": 95.12564087, "Latitude": 16.84379959, "PCODE_V": 9.6 }, "geometry": { "type": "Point", "coordinates": [ 95.12564087, 16.84379959 ] } },
{ "type": "Feature", "properties": { "ST": "Ayeyarwady", "ST_PCODE": "MMR017", "DT": "Myaungmya", "DT_PCODE": "MMR017D003", "TS": "Einme", "TS_PCODE": "MMR017015", "VT": "Khat Ti Ya", "VT_PCODE": "MMR017015040", "VILLAGE": "Kone Su", "VLG_PCODE": 154316.0, "VLG_MMR": "ကုန်းစု", "ALTVLG_ENG": null, "ALTVLG_MMR": null, "Longitude": 95.14453888, "Latitude": 16.84585953, "PCODE_V": 9.6 }, "geometry": { "type": "Point", "coordinates": [ 95.14453888, 16.84585953 ] } },
{ "type": "Feature", "properties": { "ST": "Ayeyarwady", "ST_PCODE": "MMR017", "DT": "Myaungmya", "DT_PCODE": "MMR017D003", "TS": "Einme", "TS_PCODE": "MMR017015", "VT": "Khat Ti Ya", "VT_PCODE": "MMR017015040", "VILLAGE": "Tha Pyay Chaung", "VLG_PCODE": 154313.0, "VLG_MMR": "သပြေချောင်း", "ALTVLG_ENG": null, "ALTVLG_MMR": null, "Longitude": 95.14155579, "Latitude": 16.8479557, "PCODE_V": 9.6 }, "geometry": { "type": "Point", "coordinates": [ 95.14155579, 16.8479557 ] } },
{ "type": "Feature", "properties": { "ST": "Ayeyarwady", "ST_PCODE": "MMR017", "DT": "Myaungmya", "DT_PCODE": "MMR017D003", "TS": "Einme", "TS_PCODE": "MMR017015", "VT": "Khaung Lan Kone Gyi", "VT_PCODE": "MMR017015053", "VILLAGE": "Gway Pin Seik", "VLG_PCODE": 154331.0, "VLG_MMR": "ဂွေးပင်ဆိပ်", "ALTVLG_ENG": null, "ALTVLG_MMR": null, "Longitude": 94.9680595, "Latitude": 16.77814261, "PCODE_V": 9.6 }, "geometry": { "type": "Point", "coordinates": [ 94.9680595, 16.77814261 ] } },
{ "type": "Feature", "properties": { "ST": "Ayeyarwady", "ST_PCODE": "MMR017", "DT": "Myaungmya", "DT_PCODE": "MMR017D003", "TS": "Einme", "TS_PCODE": "MMR017015", "VT": "Khaung Lan Kone Gyi", "VT_PCODE": "MMR017015053", "VILLAGE": "Khaung Lan Kone Gyi", "VLG_PCODE": 154329.0, "VLG_MMR": "ခေါင်လံကုန်းကြီး", "ALTVLG_ENG": null, "ALTVLG_MMR": null, "Longitude": 94.98578462, "Latitude": 16.76334383, "PCODE_V": 9.6 }, "geometry": { "type": "Point", "coordinates": [ 94.98578462, 16.76334383 ] } },
{ "type": "Feature", "properties": { "ST": "Ayeyarwady", "ST_PCODE": "MMR017", "DT": "Myaungmya", "DT_PCODE": "MMR017D003", "TS": "Einme", "TS_PCODE": "MMR017015", "VT": "Khaung Lan Kone Gyi", "VT_PCODE": "MMR017015053", "VILLAGE": "Lein Kone", "VLG_PCODE": 154332.0, "VLG_MMR": "လိန်ကုန်း", "ALTVLG_ENG": null, "ALTVLG_MMR": null, "Longitude": 94.95914489, "Latitude": 16.77488348, "PCODE_V": 9.6 }, "geometry": { "type": "Point", "coordinates": [ 94.95914489, 16.77488348 ] } },
{ "type": "Feature", "properties": { "ST": "Ayeyarwady", "ST_PCODE": "MMR017", "DT": "Myaungmya", "DT_PCODE": "MMR017D003", "TS": "Einme", "TS_PCODE": "MMR017015", "VT": "Khaung Lan Kone Gyi", "VT_PCODE": "MMR017015053", "VILLAGE": "Ma Dawt", "VLG_PCODE": 154330.0, "VLG_MMR": "မဒေါ့", "ALTVLG_ENG": null, "ALTVLG_MMR": null, "Longitude": 94.99502224, "Latitude": 16.76577315, "PCODE_V": 9.6 }, "geometry": { "type": "Point", "coordinates": [ 94.99502224, 16.76577315 ] } },
{ "type": "Feature", "properties": { "ST": "Ayeyarwady", "ST_PCODE": "MMR017", "DT": "Myaungmya", "DT_PCODE": "MMR017D003", "TS": "Einme", "TS_PCODE": "MMR017015", "VT": "Ku", "VT_PCODE": "MMR017015033", "VILLAGE": "Kone Su", "VLG_PCODE": 154570.0, "VLG_MMR": "ကုန်းစု", "ALTVLG_ENG": null, "ALTVLG_MMR": null, "Longitude": 95.19096284, "Latitude": 16.75873519, "PCODE_V": 9.6 }, "geometry": { "type": "Point", "coordinates": [ 95.19096284, 16.75873519 ] } },
{ "type": "Feature", "properties": { "ST": "Ayeyarwady", "ST_PCODE": "MMR017", "DT": "Myaungmya", "DT_PCODE": "MMR017D003", "TS": "Einme", "TS_PCODE": "MMR017015", "VT": "Ku", "VT_PCODE": "MMR017015033", "VILLAGE": "Yae Kyaw", "VLG_PCODE": 154569.0, "VLG_MMR": "ရေကျော်", "ALTVLG_ENG": null, "ALTVLG_MMR": null, "Longitude": 95.18221646000001, "Latitude": 16.75939097, "PCODE_V": 9.6 }, "geometry": { "type": "Point", "coordinates": [ 95.18221646, 16.75939097 ] } },
{ "type": "Feature", "properties": { "ST": "Ayeyarwady", "ST_PCODE": "MMR017", "DT": "Myaungmya", "DT_PCODE": "MMR017D003", "TS": "Einme", "TS_PCODE": "MMR017015", "VT": "Ku Lar Kone", "VT_PCODE": "MMR017015049", "VILLAGE": "Ah Lel Su", "VLG_PCODE": 154592.0, "VLG_MMR": "အလယ်စု", "ALTVLG_ENG": null, "ALTVLG_MMR": null, "Longitude": 94.99450684, "Latitude": 16.80997467, "PCODE_V": 9.6 }, "geometry": { "type": "Point", "coordinates": [ 94.99450684, 16.80997467 ] } },
{ "type": "Feature", "properties": { "ST": "Ayeyarwady", "ST_PCODE": "MMR017", "DT": "Myaungmya", "DT_PCODE": "MMR017D003", "TS": "Einme", "TS_PCODE": "MMR017015", "VT": "Ku Lar Kone", "VT_PCODE": "MMR017015049", "VILLAGE": "Ku Lar Kone", "VLG_PCODE": 154591.0, "VLG_MMR": "ကုလားကုန်း", "ALTVLG_ENG": null, "ALTVLG_MMR": null, "Longitude": 95.00521088000001, "Latitude": 16.80661011, "PCODE_V": 9.6 }, "geometry": { "type": "Point", "coordinates": [ 95.00521088, 16.80661011 ] } },
{ "type": "Feature", "properties": { "ST": "Ayeyarwady", "ST_PCODE": "MMR017", "DT": "Myaungmya", "DT_PCODE": "MMR017D003", "TS": "Einme", "TS_PCODE": "MMR017015", "VT": "Ku Lar Kone", "VT_PCODE": "MMR017015049", "VILLAGE": "U Yin Su", "VLG_PCODE": 154593.0, "VLG_MMR": "ဥယျာဉ်စု", "ALTVLG_ENG": null, "ALTVLG_MMR": null, "Longitude": 94.99846649, "Latitude": 16.80086517, "PCODE_V": 9.6 }, "geometry": { "type": "Point", "coordinates": [ 94.99846649, 16.80086517 ] } },
{ "type": "Feature", "properties": { "ST": "Ayeyarwady", "ST_PCODE": "MMR017", "DT": "Myaungmya", "DT_PCODE": "MMR017D003", "TS": "Einme", "TS_PCODE": "MMR017015", "VT": "Kun Chan", "VT_PCODE": "MMR017015070", "VILLAGE": "Kun Chan", "VLG_PCODE": 154643.0, "VLG_MMR": "ကွမ်းခြံ", "ALTVLG_ENG": null, "ALTVLG_MMR": null, "Longitude": 95.04878235, "Latitude": 16.59059715, "PCODE_V": 9.6 }, "geometry": { "type": "Point", "coordinates": [ 95.04878235, 16.59059715 ] } },
{ "type": "Feature", "properties": { "ST": "Ayeyarwady", "ST_PCODE": "MMR017", "DT": "Myaungmya", "DT_PCODE": "MMR017D003", "TS": "Einme", "TS_PCODE": "MMR017015", "VT": "Kun Chan", "VT_PCODE": "MMR017015070", "VILLAGE": "War Yon Su", "VLG_PCODE": 154645.0, "VLG_MMR": "ဝါးရုံစု", "ALTVLG_ENG": null, "ALTVLG_MMR": null, "Longitude": 95.05951691, "Latitude": 16.5935688, "PCODE_V": 9.6 }, "geometry": { "type": "Point", "coordinates": [ 95.05951691, 16.5935688 ] } },
{ "type": "Feature", "properties": { "ST": "Ayeyarwady", "ST_PCODE": "MMR017", "DT": "Myaungmya", "DT_PCODE": "MMR017D003", "TS": "Einme", "TS_PCODE": "MMR017015", "VT": "Kun Chan", "VT_PCODE": "MMR017015070", "VILLAGE": "Wea Chaung", "VLG_PCODE": 154644.0, "VLG_MMR": "ဝဲချောင်း", "ALTVLG_ENG": null, "ALTVLG_MMR": null, "Longitude": 95.059289, "Latitude": 16.596938, "PCODE_V": 9.6 }, "geometry": { "type": "Point", "coordinates": [ 95.059289, 16.596938 ] } },
{ "type": "Feature", "properties": { "ST": "Ayeyarwady", "ST_PCODE": "MMR017", "DT": "Myaungmya", "DT_PCODE": "MMR017D003", "TS": "Einme", "TS_PCODE": "MMR017015", "VT": "Kun Chan", "VT_PCODE": "MMR017015070", "VILLAGE": "Ywar Thit Ka Lay", "VLG_PCODE": 218687.0, "VLG_MMR": "ရွာသစ်ကလေး", "ALTVLG_ENG": null, "ALTVLG_MMR": null, "Longitude": 95.0542, "Latitude": 16.600428, "PCODE_V": 9.6 }, "geometry": { "type": "Point", "coordinates": [ 95.0542, 16.600428 ] } },
{ "type": "Feature", "properties": { "ST": "Ayeyarwady", "ST_PCODE": "MMR017", "DT": "Myaungmya", "DT_PCODE": "MMR017D003", "TS": "Einme", "TS_PCODE": "MMR017015", "VT": "Kun Sa Khan", "VT_PCODE": "MMR017015006", "VILLAGE": "Ah Twin Ni Sat", "VLG_PCODE": 154712.0, "VLG_MMR": "အတွင်းနီစပ်", "ALTVLG_ENG": null, "ALTVLG_MMR": null, "Longitude": 95.09671693, "Latitude": 16.8395604, "PCODE_V": 9.6 }, "geometry": { "type": "Point", "coordinates": [ 95.09671693, 16.8395604 ] } },
{ "type": "Feature", "properties": { "ST": "Ayeyarwady", "ST_PCODE": "MMR017", "DT": "Myaungmya", "DT_PCODE": "MMR017D003", "TS": "Einme", "TS_PCODE": "MMR017015", "VT": "Kun Sa Khan", "VT_PCODE": "MMR017015006", "VILLAGE": "Kun Sa Khan", "VLG_PCODE": 154710.0, "VLG_MMR": "ကွန်စခမ်း", "ALTVLG_ENG": null, "ALTVLG_MMR": null, "Longitude": 95.09809392, "Latitude": 16.83360312, "PCODE_V": 9.6 }, "geometry": { "type": "Point", "coordinates": [ 95.09809392, 16.83360312 ] } },
{ "type": "Feature", "properties": { "ST": "Ayeyarwady", "ST_PCODE": "MMR017", "DT": "Myaungmya", "DT_PCODE": "MMR017D003", "TS": "Einme", "TS_PCODE": "MMR017015", "VT": "Kun Sa Khan", "VT_PCODE": "MMR017015006", "VILLAGE": "Ni Sat Kha Lay", "VLG_PCODE": 154711.0, "VLG_MMR": "နီစပ်ခလေး", "ALTVLG_ENG": null, "ALTVLG_MMR": null, "Longitude": 95.09488694, "Latitude": 16.82848903, "PCODE_V": 9.6 }, "geometry": { "type": "Point", "coordinates": [ 95.09488694, 16.82848903 ] } },
{ "type": "Feature", "properties": { "ST": "Ayeyarwady", "ST_PCODE": "MMR017", "DT": "Myaungmya", "DT_PCODE": "MMR017D003", "TS": "Einme", "TS_PCODE": "MMR017015", "VT": "Kun Sa Khan", "VT_PCODE": "MMR017015006", "VILLAGE": "Wea Chaung", "VLG_PCODE": 218671.0, "VLG_MMR": "ဝဲချောင်း", "ALTVLG_ENG": null, "ALTVLG_MMR": null, "Longitude": 95.08077859, "Latitude": 16.83160839, "PCODE_V": 9.6 }, "geometry": { "type": "Point", "coordinates": [ 95.08077859, 16.83160839 ] } },
{ "type": "Feature", "properties": { "ST": "Ayeyarwady", "ST_PCODE": "MMR017", "DT": "Myaungmya", "DT_PCODE": "MMR017D003", "TS": "Einme", "TS_PCODE": "MMR017015", "VT": "Kun Taing", "VT_PCODE": "MMR017015044", "VILLAGE": "Ah Nauk Su", "VLG_PCODE": 154719.0, "VLG_MMR": "အနောက်စု", "ALTVLG_ENG": null, "ALTVLG_MMR": null, "Longitude": 95.10715549, "Latitude": 16.78867629, "PCODE_V": 9.6 }, "geometry": { "type": "Point", "coordinates": [ 95.10715549, 16.78867629 ] } },
{ "type": "Feature", "properties": { "ST": "Ayeyarwady", "ST_PCODE": "MMR017", "DT": "Myaungmya", "DT_PCODE": "MMR017D003", "TS": "Einme", "TS_PCODE": "MMR017015", "VT": "Kun Taing", "VT_PCODE": "MMR017015044", "VILLAGE": "Hpa Yar Kone", "VLG_PCODE": 154718.0, "VLG_MMR": "ဘုရားကုန်း", "ALTVLG_ENG": null, "ALTVLG_MMR": null, "Longitude": 95.11465311000001, "Latitude": 16.79763186, "PCODE_V": 9.6 }, "geometry": { "type": "Point", "coordinates": [ 95.11465311, 16.79763186 ] } },
{ "type": "Feature", "properties": { "ST": "Ayeyarwady", "ST_PCODE": "MMR017", "DT": "Myaungmya", "DT_PCODE": "MMR017D003", "TS": "Einme", "TS_PCODE": "MMR017015", "VT": "Kun Taing", "VT_PCODE": "MMR017015044", "VILLAGE": "Kan Kone", "VLG_PCODE": 154717.0, "VLG_MMR": "ကံကုန်း", "ALTVLG_ENG": null, "ALTVLG_MMR": null, "Longitude": 95.1128006, "Latitude": 16.79143906, "PCODE_V": 9.6 }, "geometry": { "type": "Point", "coordinates": [ 95.1128006, 16.79143906 ] } },
{ "type": "Feature", "properties": { "ST": "Ayeyarwady", "ST_PCODE": "MMR017", "DT": "Myaungmya", "DT_PCODE": "MMR017D003", "TS": "Einme", "TS_PCODE": "MMR017015", "VT": "Kun Taing", "VT_PCODE": "MMR017015044", "VILLAGE": "Kun Taing", "VLG_PCODE": 154716.0, "VLG_MMR": "ကွန်တိုင်း", "ALTVLG_ENG": null, "ALTVLG_MMR": null, "Longitude": 95.09292731, "Latitude": 16.79837385, "PCODE_V": 9.6 }, "geometry": { "type": "Point", "coordinates": [ 95.09292731, 16.79837385 ] } },
{ "type": "Feature", "properties": { "ST": "Ayeyarwady", "ST_PCODE": "MMR017", "DT": "Myaungmya", "DT_PCODE": "MMR017D003", "TS": "Einme", "TS_PCODE": "MMR017015", "VT": "Kun Taing", "VT_PCODE": "MMR017015044", "VILLAGE": "Kwin Pauk Gyi", "VLG_PCODE": 154722.0, "VLG_MMR": "ကွင်းပေါက်ကြီး", "ALTVLG_ENG": null, "ALTVLG_MMR": null, "Longitude": 95.09043506, "Latitude": 16.79154935, "PCODE_V": 9.6 }, "geometry": { "type": "Point", "coordinates": [ 95.09043506, 16.79154935 ] } },
{ "type": "Feature", "properties": { "ST": "Ayeyarwady", "ST_PCODE": "MMR017", "DT": "Myaungmya", "DT_PCODE": "MMR017D003", "TS": "Einme", "TS_PCODE": "MMR017015", "VT": "Kun Taing", "VT_PCODE": "MMR017015044", "VILLAGE": "Let Pan Kone", "VLG_PCODE": 154720.0, "VLG_MMR": "လက်ပံကုန်း", "ALTVLG_ENG": null, "ALTVLG_MMR": null, "Longitude": 95.1043085, "Latitude": 16.78534723, "PCODE_V": 9.6 }, "geometry": { "type": "Point", "coordinates": [ 95.1043085, 16.78534723 ] } },
{ "type": "Feature", "properties": { "ST": "Ayeyarwady", "ST_PCODE": "MMR017", "DT": "Myaungmya", "DT_PCODE": "MMR017D003", "TS": "Einme", "TS_PCODE": "MMR017015", "VT": "Kun Taing", "VT_PCODE": "MMR017015044", "VILLAGE": "Sit Kyun", "VLG_PCODE": 154721.0, "VLG_MMR": "စစ်ကျွန်း", "ALTVLG_ENG": null, "ALTVLG_MMR": null, "Longitude": 95.10100656, "Latitude": 16.78115738, "PCODE_V": 9.6 }, "geometry": { "type": "Point", "coordinates": [ 95.10100656, 16.78115738 ] } },
{ "type": "Feature", "properties": { "ST": "Ayeyarwady", "ST_PCODE": "MMR017", "DT": "Myaungmya", "DT_PCODE": "MMR017D003", "TS": "Einme", "TS_PCODE": "MMR017015", "VT": "Kwin Gyi", "VT_PCODE": "MMR017015092", "VILLAGE": "Kwin Gyi", "VLG_PCODE": 154846.0, "VLG_MMR": "ကွင်းကြီး", "ALTVLG_ENG": null, "ALTVLG_MMR": null, "Longitude": 95.13083165, "Latitude": 16.65192579, "PCODE_V": 9.6 }, "geometry": { "type": "Point", "coordinates": [ 95.13083165, 16.65192579 ] } },
{ "type": "Feature", "properties": { "ST": "Ayeyarwady", "ST_PCODE": "MMR017", "DT": "Myaungmya", "DT_PCODE": "MMR017D003", "TS": "Einme", "TS_PCODE": "MMR017015", "VT": "Kwin Gyi", "VT_PCODE": "MMR017015092", "VILLAGE": "Kyon Da Leit", "VLG_PCODE": 154848.0, "VLG_MMR": "ကျုံဒလဲ့", "ALTVLG_ENG": null, "ALTVLG_MMR": null, "Longitude": 95.11559296, "Latitude": 16.66778755, "PCODE_V": 9.6 }, "geometry": { "type": "Point", "coordinates": [ 95.11559296, 16.66778755 ] } },
{ "type": "Feature", "properties": { "ST": "Ayeyarwady", "ST_PCODE": "MMR017", "DT": "Myaungmya", "DT_PCODE": "MMR017D003", "TS": "Einme", "TS_PCODE": "MMR017015", "VT": "Kwin Gyi", "VT_PCODE": "MMR017015092", "VILLAGE": "Tha Pyay Hla", "VLG_PCODE": 154849.0, "VLG_MMR": "သပြေလှ", "ALTVLG_ENG": null, "ALTVLG_MMR": null, "Longitude": 95.14557402, "Latitude": 16.6577845, "PCODE_V": 9.6 }, "geometry": { "type": "Point", "coordinates": [ 95.14557402, 16.6577845 ] } },
{ "type": "Feature", "properties": { "ST": "Ayeyarwady", "ST_PCODE": "MMR017", "DT": "Myaungmya", "DT_PCODE": "MMR017D003", "TS": "Einme", "TS_PCODE": "MMR017015", "VT": "Kwin Gyi", "VT_PCODE": "MMR017015092", "VILLAGE": "Zee Hpyu Kone", "VLG_PCODE": 154847.0, "VLG_MMR": "ဇီးဖြူကုန်း", "ALTVLG_ENG": null, "ALTVLG_MMR": null, "Longitude": 95.12767029, "Latitude": 16.64504051, "PCODE_V": 9.6 }, "geometry": { "type": "Point", "coordinates": [ 95.12767029, 16.64504051 ] } },
{ "type": "Feature", "properties": { "ST": "Ayeyarwady", "ST_PCODE": "MMR017", "DT": "Myaungmya", "DT_PCODE": "MMR017D003", "TS": "Einme", "TS_PCODE": "MMR017015", "VT": "Kwin Ka Lay", "VT_PCODE": "MMR017015042", "VILLAGE": "Ah Nyar Su", "VLG_PCODE": 154904.0, "VLG_MMR": "အညာစု", "ALTVLG_ENG": null, "ALTVLG_MMR": null, "Longitude": 95.16297913, "Latitude": 16.80015373, "PCODE_V": 9.6 }, "geometry": { "type": "Point", "coordinates": [ 95.16297913, 16.80015373 ] } },
{ "type": "Feature", "properties": { "ST": "Ayeyarwady", "ST_PCODE": "MMR017", "DT": "Myaungmya", "DT_PCODE": "MMR017D003", "TS": "Einme", "TS_PCODE": "MMR017015", "VT": "Kwin Ka Lay", "VT_PCODE": "MMR017015042", "VILLAGE": "Ah Yoe Taung", "VLG_PCODE": 154901.0, "VLG_MMR": "အရိုးတောင်", "ALTVLG_ENG": null, "ALTVLG_MMR": null, "Longitude": 95.13210297000001, "Latitude": 16.80717087, "PCODE_V": 9.6 }, "geometry": { "type": "Point", "coordinates": [ 95.13210297, 16.80717087 ] } },
{ "type": "Feature", "properties": { "ST": "Ayeyarwady", "ST_PCODE": "MMR017", "DT": "Myaungmya", "DT_PCODE": "MMR017D003", "TS": "Einme", "TS_PCODE": "MMR017015", "VT": "Kwin Ka Lay", "VT_PCODE": "MMR017015042", "VILLAGE": "Doe Kone", "VLG_PCODE": 154902.0, "VLG_MMR": "ဒိုးကုန်း", "ALTVLG_ENG": null, "ALTVLG_MMR": null, "Longitude": 95.13038635, "Latitude": 16.78327942, "PCODE_V": 9.6 }, "geometry": { "type": "Point", "coordinates": [ 95.13038635, 16.78327942 ] } },
{ "type": "Feature", "properties": { "ST": "Ayeyarwady", "ST_PCODE": "MMR017", "DT": "Myaungmya", "DT_PCODE": "MMR017D003", "TS": "Einme", "TS_PCODE": "MMR017015", "VT": "Kwin Ka Lay", "VT_PCODE": "MMR017015042", "VILLAGE": "In Waing", "VLG_PCODE": 218674.0, "VLG_MMR": "အင်ဝိုင်း", "ALTVLG_ENG": null, "ALTVLG_MMR": null, "Longitude": 95.13395691, "Latitude": 16.77994537, "PCODE_V": 9.6 }, "geometry": { "type": "Point", "coordinates": [ 95.13395691, 16.77994537 ] } },
{ "type": "Feature", "properties": { "ST": "Ayeyarwady", "ST_PCODE": "MMR017", "DT": "Myaungmya", "DT_PCODE": "MMR017D003", "TS": "Einme", "TS_PCODE": "MMR017015", "VT": "Kwin Ka Lay", "VT_PCODE": "MMR017015042", "VILLAGE": "Kun Chan Kone", "VLG_PCODE": 154903.0, "VLG_MMR": "ကွမ်းခြံကုန်း", "ALTVLG_ENG": null, "ALTVLG_MMR": null, "Longitude": 95.11971283, "Latitude": 16.78249931, "PCODE_V": 9.6 }, "geometry": { "type": "Point", "coordinates": [ 95.11971283, 16.78249931 ] } },
{ "type": "Feature", "properties": { "ST": "Ayeyarwady", "ST_PCODE": "MMR017", "DT": "Myaungmya", "DT_PCODE": "MMR017D003", "TS": "Einme", "TS_PCODE": "MMR017015", "VT": "Kwin Ka Lay", "VT_PCODE": "MMR017015042", "VILLAGE": "Kwin Ka Lay", "VLG_PCODE": 154899.0, "VLG_MMR": "ကွင်းကလေး", "ALTVLG_ENG": null, "ALTVLG_MMR": null, "Longitude": 95.13818359, "Latitude": 16.80624962, "PCODE_V": 9.6 }, "geometry": { "type": "Point", "coordinates": [ 95.13818359, 16.80624962 ] } },
{ "type": "Feature", "properties": { "ST": "Ayeyarwady", "ST_PCODE": "MMR017", "DT": "Myaungmya", "DT_PCODE": "MMR017D003", "TS": "Einme", "TS_PCODE": "MMR017015", "VT": "Kwin Ka Lay", "VT_PCODE": "MMR017015042", "VILLAGE": "Pa Yaik", "VLG_PCODE": 154900.0, "VLG_MMR": "ပရိုက်", "ALTVLG_ENG": null, "ALTVLG_MMR": null, "Longitude": 95.13238155000001, "Latitude": 16.7858922, "PCODE_V": 9.6 }, "geometry": { "type": "Point", "coordinates": [ 95.13238155, 16.7858922 ] } },
{ "type": "Feature", "properties": { "ST": "Ayeyarwady", "ST_PCODE": "MMR017", "DT": "Myaungmya", "DT_PCODE": "MMR017D003", "TS": "Einme", "TS_PCODE": "MMR017015", "VT": "Kwin Yar Ta Khun Taing", "VT_PCODE": "MMR017015045", "VILLAGE": "Do Kone", "VLG_PCODE": 154998.0, "VLG_MMR": "ဒိုကုန်း", "ALTVLG_ENG": "Doe Kone", "ALTVLG_MMR": "ဒိုးကုန်း", "Longitude": 95.12808938000001, "Latitude": 16.78084738, "PCODE_V": 9.6 }, "geometry": { "type": "Point", "coordinates": [ 95.12808938, 16.78084738 ] } },
{ "type": "Feature", "properties": { "ST": "Ayeyarwady", "ST_PCODE": "MMR017", "DT": "Myaungmya", "DT_PCODE": "MMR017D003", "TS": "Einme", "TS_PCODE": "MMR017015", "VT": "Kwin Yar Ta Khun Taing", "VT_PCODE": "MMR017015045", "VILLAGE": "Kar Ya Mun Kone", "VLG_PCODE": 154997.0, "VLG_MMR": "ကာရမွန်ကုန်း", "ALTVLG_ENG": null, "ALTVLG_MMR": null, "Longitude": 95.101743, "Latitude": 16.760687, "PCODE_V": 9.6 }, "geometry": { "type": "Point", "coordinates": [ 95.101743, 16.760687 ] } },
{ "type": "Feature", "properties": { "ST": "Ayeyarwady", "ST_PCODE": "MMR017", "DT": "Myaungmya", "DT_PCODE": "MMR017D003", "TS": "Einme", "TS_PCODE": "MMR017015", "VT": "Kwin Yar Ta Khun Taing", "VT_PCODE": "MMR017015045", "VILLAGE": "Kwin Yar", "VLG_PCODE": 154992.0, "VLG_MMR": "ကွင်းယား", "ALTVLG_ENG": null, "ALTVLG_MMR": null, "Longitude": 95.11128998, "Latitude": 16.77013016, "PCODE_V": 9.6 }, "geometry": { "type": "Point", "coordinates": [ 95.11128998, 16.77013016 ] } },
{ "type": "Feature", "properties": { "ST": "Ayeyarwady", "ST_PCODE": "MMR017", "DT": "Myaungmya", "DT_PCODE": "MMR017D003", "TS": "Einme", "TS_PCODE": "MMR017015", "VT": "Kwin Yar Ta Khun Taing", "VT_PCODE": "MMR017015045", "VILLAGE": "Kwin Yar Ta Khun Taing", "VLG_PCODE": 154990.0, "VLG_MMR": "ကွင်းယားတခွန်တိုင်", "ALTVLG_ENG": null, "ALTVLG_MMR": null, "Longitude": 95.12007816000001, "Latitude": 16.76602359, "PCODE_V": 9.6 }, "geometry": { "type": "Point", "coordinates": [ 95.12007816, 16.76602359 ] } },
{ "type": "Feature", "properties": { "ST": "Ayeyarwady", "ST_PCODE": "MMR017", "DT": "Myaungmya", "DT_PCODE": "MMR017D003", "TS": "Einme", "TS_PCODE": "MMR017015", "VT": "Kwin Yar Ta Khun Taing", "VT_PCODE": "MMR017015045", "VILLAGE": "Kyaung Su", "VLG_PCODE": 154995.0, "VLG_MMR": "ကျောင်းစု", "ALTVLG_ENG": null, "ALTVLG_MMR": null, "Longitude": 95.11638641, "Latitude": 16.7765007, "PCODE_V": 9.6 }, "geometry": { "type": "Point", "coordinates": [ 95.11638641, 16.7765007 ] } },
{ "type": "Feature", "properties": { "ST": "Ayeyarwady", "ST_PCODE": "MMR017", "DT": "Myaungmya", "DT_PCODE": "MMR017D003", "TS": "Einme", "TS_PCODE": "MMR017015", "VT": "Kwin Yar Ta Khun Taing", "VT_PCODE": "MMR017015045", "VILLAGE": "Ohn Pin Su", "VLG_PCODE": 154991.0, "VLG_MMR": "အုန်းပင်စု", "ALTVLG_ENG": null, "ALTVLG_MMR": null, "Longitude": 95.09671021, "Latitude": 16.76887321, "PCODE_V": 9.6 }, "geometry": { "type": "Point", "coordinates": [ 95.09671021, 16.76887321 ] } },
{ "type": "Feature", "properties": { "ST": "Ayeyarwady", "ST_PCODE": "MMR017", "DT": "Myaungmya", "DT_PCODE": "MMR017D003", "TS": "Einme", "TS_PCODE": "MMR017015", "VT": "Kwin Yar Ta Khun Taing", "VT_PCODE": "MMR017015045", "VILLAGE": "U Yin Su", "VLG_PCODE": 154993.0, "VLG_MMR": "ဥယျာဉ်စု", "ALTVLG_ENG": null, "ALTVLG_MMR": null, "Longitude": 95.12563324, "Latitude": 16.77006912, "PCODE_V": 9.6 }, "geometry": { "type": "Point", "coordinates": [ 95.12563324, 16.77006912 ] } },
{ "type": "Feature", "properties": { "ST": "Ayeyarwady", "ST_PCODE": "MMR017", "DT": "Myaungmya", "DT_PCODE": "MMR017D003", "TS": "Einme", "TS_PCODE": "MMR017015", "VT": "Kwin Yar Ta Khun Taing", "VT_PCODE": "MMR017015045", "VILLAGE": "War Taw", "VLG_PCODE": 154994.0, "VLG_MMR": "ဝါးတော", "ALTVLG_ENG": null, "ALTVLG_MMR": null, "Longitude": 95.09820798, "Latitude": 16.77610323, "PCODE_V": 9.6 }, "geometry": { "type": "Point", "coordinates": [ 95.09820798, 16.77610323 ] } },
{ "type": "Feature", "properties": { "ST": "Ayeyarwady", "ST_PCODE": "MMR017", "DT": "Myaungmya", "DT_PCODE": "MMR017D003", "TS": "Einme", "TS_PCODE": "MMR017015", "VT": "Kwin Yar Ta Khun Taing", "VT_PCODE": "MMR017015045", "VILLAGE": "Yae Twin Kone", "VLG_PCODE": 154996.0, "VLG_MMR": "ရေတွင်းကုန်း", "ALTVLG_ENG": null, "ALTVLG_MMR": null, "Longitude": 95.09178925000001, "Latitude": 16.75745964, "PCODE_V": 9.6 }, "geometry": { "type": "Point", "coordinates": [ 95.09178925, 16.75745964 ] } },
{ "type": "Feature", "properties": { "ST": "Ayeyarwady", "ST_PCODE": "MMR017", "DT": "Myaungmya", "DT_PCODE": "MMR017D003", "TS": "Einme", "TS_PCODE": "MMR017015", "VT": "Kya Khat Kwayt", "VT_PCODE": "MMR017015061", "VILLAGE": "Kya Khat Kwayt", "VLG_PCODE": 155012.0, "VLG_MMR": "ကြခတ်ကွေ့", "ALTVLG_ENG": null, "ALTVLG_MMR": null, "Longitude": 95.05861664, "Latitude": 16.71031952, "PCODE_V": 9.6 }, "geometry": { "type": "Point", "coordinates": [ 95.05861664, 16.71031952 ] } },
{ "type": "Feature", "properties": { "ST": "Ayeyarwady", "ST_PCODE": "MMR017", "DT": "Myaungmya", "DT_PCODE": "MMR017D003", "TS": "Einme", "TS_PCODE": "MMR017015", "VT": "Kya Khat Kwayt", "VT_PCODE": "MMR017015061", "VILLAGE": "Me Za Li Chaung", "VLG_PCODE": 155014.0, "VLG_MMR": "မဲဇလီချောင်း", "ALTVLG_ENG": null, "ALTVLG_MMR": null, "Longitude": 95.05780194, "Latitude": 16.72340722, "PCODE_V": 9.6 }, "geometry": { "type": "Point", "coordinates": [ 95.05780194, 16.72340722 ] } },
{ "type": "Feature", "properties": { "ST": "Ayeyarwady", "ST_PCODE": "MMR017", "DT": "Myaungmya", "DT_PCODE": "MMR017D003", "TS": "Einme", "TS_PCODE": "MMR017015", "VT": "Kya Khat Kwayt", "VT_PCODE": "MMR017015061", "VILLAGE": "Pan Pin Seik", "VLG_PCODE": 155015.0, "VLG_MMR": "ပန်းပင်ဆိပ်", "ALTVLG_ENG": null, "ALTVLG_MMR": null, "Longitude": 95.058037, "Latitude": 16.696369, "PCODE_V": 9.6 }, "geometry": { "type": "Point", "coordinates": [ 95.058037, 16.696369 ] } },
{ "type": "Feature", "properties": { "ST": "Ayeyarwady", "ST_PCODE": "MMR017", "DT": "Myaungmya", "DT_PCODE": "MMR017D003", "TS": "Einme", "TS_PCODE": "MMR017015", "VT": "Kya Khat Kwayt", "VT_PCODE": "MMR017015061", "VILLAGE": "Pauk Taw", "VLG_PCODE": 155016.0, "VLG_MMR": "ပေါက်တော", "ALTVLG_ENG": null, "ALTVLG_MMR": null, "Longitude": 95.05695343, "Latitude": 16.70648956, "PCODE_V": 9.6 }, "geometry": { "type": "Point", "coordinates": [ 95.05695343, 16.70648956 ] } },
{ "type": "Feature", "properties": { "ST": "Ayeyarwady", "ST_PCODE": "MMR017", "DT": "Myaungmya", "DT_PCODE": "MMR017D003", "TS": "Einme", "TS_PCODE": "MMR017015", "VT": "Kya Khat Kwayt", "VT_PCODE": "MMR017015061", "VILLAGE": "Pe Hlaw Kone", "VLG_PCODE": 155017.0, "VLG_MMR": "ပဲလှော်ကုန်း", "ALTVLG_ENG": null, "ALTVLG_MMR": null, "Longitude": 95.06100464, "Latitude": 16.71434593, "PCODE_V": 9.6 }, "geometry": { "type": "Point", "coordinates": [ 95.06100464, 16.71434593 ] } },
{ "type": "Feature", "properties": { "ST": "Ayeyarwady", "ST_PCODE": "MMR017", "DT": "Myaungmya", "DT_PCODE": "MMR017D003", "TS": "Einme", "TS_PCODE": "MMR017015", "VT": "Kya Khat Kwayt", "VT_PCODE": "MMR017015061", "VILLAGE": "Ywar Ka Lay", "VLG_PCODE": 155013.0, "VLG_MMR": "ရွာကလေး", "ALTVLG_ENG": null, "ALTVLG_MMR": null, "Longitude": 95.05831146, "Latitude": 16.69993591, "PCODE_V": 9.6 }, "geometry": { "type": "Point", "coordinates": [ 95.05831146, 16.69993591 ] } },
{ "type": "Feature", "properties": { "ST": "Ayeyarwady", "ST_PCODE": "MMR017", "DT": "Myaungmya", "DT_PCODE": "MMR017D003", "TS": "Einme", "TS_PCODE": "MMR017015", "VT": "Kyaik Pi", "VT_PCODE": "MMR017015041", "VILLAGE": "Ah Su Gyi", "VLG_PCODE": 155056.0, "VLG_MMR": "အစုကြီး", "ALTVLG_ENG": null, "ALTVLG_MMR": null, "Longitude": 95.1325531, "Latitude": 16.83685875, "PCODE_V": 9.6 }, "geometry": { "type": "Point", "coordinates": [ 95.1325531, 16.83685875 ] } },
{ "type": "Feature", "properties": { "ST": "Ayeyarwady", "ST_PCODE": "MMR017", "DT": "Myaungmya", "DT_PCODE": "MMR017D003", "TS": "Einme", "TS_PCODE": "MMR017015", "VT": "Kyaik Pi", "VT_PCODE": "MMR017015041", "VILLAGE": "Gyoe Su", "VLG_PCODE": 155057.0, "VLG_MMR": "ဂျိုးစု", "ALTVLG_ENG": null, "ALTVLG_MMR": null, "Longitude": 95.12415314, "Latitude": 16.80092239, "PCODE_V": 9.6 }, "geometry": { "type": "Point", "coordinates": [ 95.12415314, 16.80092239 ] } },
{ "type": "Feature", "properties": { "ST": "Ayeyarwady", "ST_PCODE": "MMR017", "DT": "Myaungmya", "DT_PCODE": "MMR017D003", "TS": "Einme", "TS_PCODE": "MMR017015", "VT": "Kyaik Pi", "VT_PCODE": "MMR017015041", "VILLAGE": "Kyaik Pi", "VLG_PCODE": 155054.0, "VLG_MMR": "ကျိုက်ပိ", "ALTVLG_ENG": null, "ALTVLG_MMR": null, "Longitude": 95.13993805, "Latitude": 16.82780898, "PCODE_V": 9.6 }, "geometry": { "type": "Point", "coordinates": [ 95.13993805, 16.82780898 ] } },
{ "type": "Feature", "properties": { "ST": "Ayeyarwady", "ST_PCODE": "MMR017", "DT": "Myaungmya", "DT_PCODE": "MMR017D003", "TS": "Einme", "TS_PCODE": "MMR017015", "VT": "Kyaik Pi", "VT_PCODE": "MMR017015041", "VILLAGE": "Kyaung Su", "VLG_PCODE": 155055.0, "VLG_MMR": "ကျောင်းစု", "ALTVLG_ENG": null, "ALTVLG_MMR": null, "Longitude": 95.12888993, "Latitude": 16.82741367, "PCODE_V": 9.6 }, "geometry": { "type": "Point", "coordinates": [ 95.12888993, 16.82741367 ] } },
{ "type": "Feature", "properties": { "ST": "Ayeyarwady", "ST_PCODE": "MMR017", "DT": "Myaungmya", "DT_PCODE": "MMR017D003", "TS": "Einme", "TS_PCODE": "MMR017015", "VT": "Kyar Htaw", "VT_PCODE": "MMR017015064", "VILLAGE": "Kyar Htaw", "VLG_PCODE": 155143.0, "VLG_MMR": "ကြာထော်", "ALTVLG_ENG": null, "ALTVLG_MMR": null, "Longitude": 95.00222593, "Latitude": 16.6454538, "PCODE_V": 9.6 }, "geometry": { "type": "Point", "coordinates": [ 95.00222593, 16.6454538 ] } },
{ "type": "Feature", "properties": { "ST": "Ayeyarwady", "ST_PCODE": "MMR017", "DT": "Myaungmya", "DT_PCODE": "MMR017D003", "TS": "Einme", "TS_PCODE": "MMR017015", "VT": "Kyar Htaw", "VT_PCODE": "MMR017015064", "VILLAGE": "Kyon Tha Ngeit", "VLG_PCODE": 155148.0, "VLG_MMR": "ကျုံသငဲ့", "ALTVLG_ENG": null, "ALTVLG_MMR": null, "Longitude": 95.0267334, "Latitude": 16.66300011, "PCODE_V": 9.6 }, "geometry": { "type": "Point", "coordinates": [ 95.0267334, 16.66300011 ] } },
{ "type": "Feature", "properties": { "ST": "Ayeyarwady", "ST_PCODE": "MMR017", "DT": "Myaungmya", "DT_PCODE": "MMR017D003", "TS": "Einme", "TS_PCODE": "MMR017015", "VT": "Kyar Htaw", "VT_PCODE": "MMR017015064", "VILLAGE": "Nyaung Chaung", "VLG_PCODE": 155144.0, "VLG_MMR": "ညောင်ချောင်း", "ALTVLG_ENG": null, "ALTVLG_MMR": null, "Longitude": 95.00193636, "Latitude": 16.64876566, "PCODE_V": 9.6 }, "geometry": { "type": "Point", "coordinates": [ 95.00193636, 16.64876566 ] } },
{ "type": "Feature", "properties": { "ST": "Ayeyarwady", "ST_PCODE": "MMR017", "DT": "Myaungmya", "DT_PCODE": "MMR017D003", "TS": "Einme", "TS_PCODE": "MMR017015", "VT": "Kyar Htaw", "VT_PCODE": "MMR017015064", "VILLAGE": "Nyaung Chaung Ywar Thit", "VLG_PCODE": 155145.0, "VLG_MMR": "ညောင်ချောင်းရွာသစ်", "ALTVLG_ENG": null, "ALTVLG_MMR": null, "Longitude": 95.00407878, "Latitude": 16.6552025, "PCODE_V": 9.6 }, "geometry": { "type": "Point", "coordinates": [ 95.00407878, 16.6552025 ] } },
{ "type": "Feature", "properties": { "ST": "Ayeyarwady", "ST_PCODE": "MMR017", "DT": "Myaungmya", "DT_PCODE": "MMR017D003", "TS": "Einme", "TS_PCODE": "MMR017015", "VT": "Kyar Htaw", "VT_PCODE": "MMR017015064", "VILLAGE": "Swei Taw", "VLG_PCODE": 155147.0, "VLG_MMR": "စွယ်တော်", "ALTVLG_ENG": null, "ALTVLG_MMR": null, "Longitude": 95.01677968, "Latitude": 16.65923286, "PCODE_V": 9.6 }, "geometry": { "type": "Point", "coordinates": [ 95.01677968, 16.65923286 ] } },
{ "type": "Feature", "properties": { "ST": "Ayeyarwady", "ST_PCODE": "MMR017", "DT": "Myaungmya", "DT_PCODE": "MMR017D003", "TS": "Einme", "TS_PCODE": "MMR017015", "VT": "Kyar Na Hpu", "VT_PCODE": "MMR017015081", "VILLAGE": "Gyaung Gyi", "VLG_PCODE": 155234.0, "VLG_MMR": "ဂျောင်ကြီး", "ALTVLG_ENG": null, "ALTVLG_MMR": null, "Longitude": 95.0774765, "Latitude": 16.72739983, "PCODE_V": 9.6 }, "geometry": { "type": "Point", "coordinates": [ 95.0774765, 16.72739983 ] } },
{ "type": "Feature", "properties": { "ST": "Ayeyarwady", "ST_PCODE": "MMR017", "DT": "Myaungmya", "DT_PCODE": "MMR017D003", "TS": "Einme", "TS_PCODE": "MMR017015", "VT": "Kyar Na Hpu", "VT_PCODE": "MMR017015081", "VILLAGE": "Kyar Na Hpu", "VLG_PCODE": 155233.0, "VLG_MMR": "ကျားနဖူး", "ALTVLG_ENG": null, "ALTVLG_MMR": null, "Longitude": 95.08524323, "Latitude": 16.73316956, "PCODE_V": 9.6 }, "geometry": { "type": "Point", "coordinates": [ 95.08524323, 16.73316956 ] } },
{ "type": "Feature", "properties": { "ST": "Ayeyarwady", "ST_PCODE": "MMR017", "DT": "Myaungmya", "DT_PCODE": "MMR017D003", "TS": "Einme", "TS_PCODE": "MMR017015", "VT": "Kyar Tan", "VT_PCODE": "MMR017015097", "VILLAGE": "Kyar Tan", "VLG_PCODE": 155235.0, "VLG_MMR": "ကြာတန်း", "ALTVLG_ENG": null, "ALTVLG_MMR": null, "Longitude": 95.09477997, "Latitude": 16.58916092, "PCODE_V": 9.6 }, "geometry": { "type": "Point", "coordinates": [ 95.09477997, 16.58916092 ] } },
{ "type": "Feature", "properties": { "ST": "Ayeyarwady", "ST_PCODE": "MMR017", "DT": "Myaungmya", "DT_PCODE": "MMR017D003", "TS": "Einme", "TS_PCODE": "MMR017015", "VT": "Kyar Tan", "VT_PCODE": "MMR017015097", "VILLAGE": "Sin Aing", "VLG_PCODE": 155237.0, "VLG_MMR": "ဆင်အိုင်", "ALTVLG_ENG": null, "ALTVLG_MMR": null, "Longitude": 95.10080719, "Latitude": 16.5862999, "PCODE_V": 9.6 }, "geometry": { "type": "Point", "coordinates": [ 95.10080719, 16.5862999 ] } },
{ "type": "Feature", "properties": { "ST": "Ayeyarwady", "ST_PCODE": "MMR017", "DT": "Myaungmya", "DT_PCODE": "MMR017D003", "TS": "Einme", "TS_PCODE": "MMR017015", "VT": "Kyar Tan", "VT_PCODE": "MMR017015097", "VILLAGE": "Thea Kone", "VLG_PCODE": 155238.0, "VLG_MMR": "သဲကုန်း", "ALTVLG_ENG": null, "ALTVLG_MMR": null, "Longitude": 95.09706879, "Latitude": 16.57858086, "PCODE_V": 9.6 }, "geometry": { "type": "Point", "coordinates": [ 95.09706879, 16.57858086 ] } },
{ "type": "Feature", "properties": { "ST": "Ayeyarwady", "ST_PCODE": "MMR017", "DT": "Myaungmya", "DT_PCODE": "MMR017D003", "TS": "Einme", "TS_PCODE": "MMR017015", "VT": "Kyar Tan", "VT_PCODE": "MMR017015097", "VILLAGE": "Thin Pan Chaung", "VLG_PCODE": 155239.0, "VLG_MMR": "သင်ပန်းချောင်း", "ALTVLG_ENG": null, "ALTVLG_MMR": null, "Longitude": 95.07997517, "Latitude": 16.59668209, "PCODE_V": 9.6 }, "geometry": { "type": "Point", "coordinates": [ 95.07997517, 16.59668209 ] } },
{ "type": "Feature", "properties": { "ST": "Ayeyarwady", "ST_PCODE": "MMR017", "DT": "Myaungmya", "DT_PCODE": "MMR017D003", "TS": "Einme", "TS_PCODE": "MMR017015", "VT": "Kyar Tan", "VT_PCODE": "MMR017015097", "VILLAGE": "Ywar Thit Kone", "VLG_PCODE": 155236.0, "VLG_MMR": "ရွာသစ်ကုန်း", "ALTVLG_ENG": null, "ALTVLG_MMR": null, "Longitude": 95.09388733, "Latitude": 16.5815506, "PCODE_V": 9.6 }, "geometry": { "type": "Point", "coordinates": [ 95.09388733, 16.5815506 ] } },
{ "type": "Feature", "properties": { "ST": "Ayeyarwady", "ST_PCODE": "MMR017", "DT": "Myaungmya", "DT_PCODE": "MMR017D003", "TS": "Einme", "TS_PCODE": "MMR017015", "VT": "Kyaung Su", "VT_PCODE": "MMR017015004", "VILLAGE": "Kan Kone", "VLG_PCODE": 218668.0, "VLG_MMR": "ကံကုန်း", "ALTVLG_ENG": null, "ALTVLG_MMR": null, "Longitude": 95.0428772, "Latitude": 16.86873436, "PCODE_V": 9.6 }, "geometry": { "type": "Point", "coordinates": [ 95.0428772, 16.86873436 ] } },
{ "type": "Feature", "properties": { "ST": "Ayeyarwady", "ST_PCODE": "MMR017", "DT": "Myaungmya", "DT_PCODE": "MMR017D003", "TS": "Einme", "TS_PCODE": "MMR017015", "VT": "Kyaung Su", "VT_PCODE": "MMR017015004", "VILLAGE": "Kyaung Su", "VLG_PCODE": 155404.0, "VLG_MMR": "ကျောင်းစု", "ALTVLG_ENG": null, "ALTVLG_MMR": null, "Longitude": 95.05847168, "Latitude": 16.86522865, "PCODE_V": 9.6 }, "geometry": { "type": "Point", "coordinates": [ 95.05847168, 16.86522865 ] } },
{ "type": "Feature", "properties": { "ST": "Ayeyarwady", "ST_PCODE": "MMR017", "DT": "Myaungmya", "DT_PCODE": "MMR017D003", "TS": "Einme", "TS_PCODE": "MMR017015", "VT": "Kyaung Su", "VT_PCODE": "MMR017015004", "VILLAGE": "Pauk Kone", "VLG_PCODE": 155405.0, "VLG_MMR": "ပေါက်ကုန်း", "ALTVLG_ENG": null, "ALTVLG_MMR": null, "Longitude": 95.04818726000001, "Latitude": 16.8574276, "PCODE_V": 9.6 }, "geometry": { "type": "Point", "coordinates": [ 95.04818726, 16.8574276 ] } },
{ "type": "Feature", "properties": { "ST": "Ayeyarwady", "ST_PCODE": "MMR017", "DT": "Myaungmya", "DT_PCODE": "MMR017D003", "TS": "Einme", "TS_PCODE": "MMR017015", "VT": "Kyaung Su", "VT_PCODE": "MMR017015004", "VILLAGE": "War Taw", "VLG_PCODE": 155406.0, "VLG_MMR": "ဝါးတော", "ALTVLG_ENG": null, "ALTVLG_MMR": null, "Longitude": 95.0535202, "Latitude": 16.87050056, "PCODE_V": 9.6 }, "geometry": { "type": "Point", "coordinates": [ 95.0535202, 16.87050056 ] } },
{ "type": "Feature", "properties": { "ST": "Ayeyarwady", "ST_PCODE": "MMR017", "DT": "Myaungmya", "DT_PCODE": "MMR017D003", "TS": "Einme", "TS_PCODE": "MMR017015", "VT": "Kyoet Kone", "VT_PCODE": "MMR017015036", "VILLAGE": "Auk Paing", "VLG_PCODE": 155608.0, "VLG_MMR": "အောက်ပိုင်း", "ALTVLG_ENG": null, "ALTVLG_MMR": null, "Longitude": 95.15589905, "Latitude": 16.78271103, "PCODE_V": 9.6 }, "geometry": { "type": "Point", "coordinates": [ 95.15589905, 16.78271103 ] } },
{ "type": "Feature", "properties": { "ST": "Ayeyarwady", "ST_PCODE": "MMR017", "DT": "Myaungmya", "DT_PCODE": "MMR017D003", "TS": "Einme", "TS_PCODE": "MMR017015", "VT": "Kyoet Kone", "VT_PCODE": "MMR017015036", "VILLAGE": "Kyoet Kone", "VLG_PCODE": 155604.0, "VLG_MMR": "ကြို့ကုန်း", "ALTVLG_ENG": null, "ALTVLG_MMR": null, "Longitude": 95.15856631, "Latitude": 16.79281361, "PCODE_V": 9.6 }, "geometry": { "type": "Point", "coordinates": [ 95.15856631, 16.79281361 ] } },
{ "type": "Feature", "properties": { "ST": "Ayeyarwady", "ST_PCODE": "MMR017", "DT": "Myaungmya", "DT_PCODE": "MMR017D003", "TS": "Einme", "TS_PCODE": "MMR017015", "VT": "Kyoet Kone", "VT_PCODE": "MMR017015036", "VILLAGE": "Kyun Taw Su", "VLG_PCODE": 155609.0, "VLG_MMR": "ကျွန်းတောစု", "ALTVLG_ENG": null, "ALTVLG_MMR": null, "Longitude": 95.15123749, "Latitude": 16.77750969, "PCODE_V": 9.6 }, "geometry": { "type": "Point", "coordinates": [ 95.15123749, 16.77750969 ] } },
{ "type": "Feature", "properties": { "ST": "Ayeyarwady", "ST_PCODE": "MMR017", "DT": "Myaungmya", "DT_PCODE": "MMR017D003", "TS": "Einme", "TS_PCODE": "MMR017015", "VT": "Kyoet Kone", "VT_PCODE": "MMR017015036", "VILLAGE": "Pay Pin Su", "VLG_PCODE": 155607.0, "VLG_MMR": "ပေပင်စု", "ALTVLG_ENG": null, "ALTVLG_MMR": null, "Longitude": 95.17211151, "Latitude": 16.79199219, "PCODE_V": 9.6 }, "geometry": { "type": "Point", "coordinates": [ 95.17211151, 16.79199219 ] } },
{ "type": "Feature", "properties": { "ST": "Ayeyarwady", "ST_PCODE": "MMR017", "DT": "Myaungmya", "DT_PCODE": "MMR017D003", "TS": "Einme", "TS_PCODE": "MMR017015", "VT": "Kyoet Kone", "VT_PCODE": "MMR017015036", "VILLAGE": "Thin Gan Kone", "VLG_PCODE": 155606.0, "VLG_MMR": "သင်္ကန်းကုန်း", "ALTVLG_ENG": null, "ALTVLG_MMR": null, "Longitude": 95.15637086, "Latitude": 16.7923246, "PCODE_V": 9.6 }, "geometry": { "type": "Point", "coordinates": [ 95.15637086, 16.7923246 ] } },
{ "type": "Feature", "properties": { "ST": "Ayeyarwady", "ST_PCODE": "MMR017", "DT": "Myaungmya", "DT_PCODE": "MMR017D003", "TS": "Einme", "TS_PCODE": "MMR017015", "VT": "Kyoet Kone", "VT_PCODE": "MMR017015036", "VILLAGE": "Yae Twin Kone", "VLG_PCODE": 155605.0, "VLG_MMR": "ရေတွင်းကုန်း", "ALTVLG_ENG": null, "ALTVLG_MMR": null, "Longitude": 95.16452789, "Latitude": 16.78565979, "PCODE_V": 9.6 }, "geometry": { "type": "Point", "coordinates": [ 95.16452789, 16.78565979 ] } },
{ "type": "Feature", "properties": { "ST": "Ayeyarwady", "ST_PCODE": "MMR017", "DT": "Myaungmya", "DT_PCODE": "MMR017D003", "TS": "Einme", "TS_PCODE": "MMR017015", "VT": "Kyon Ka Ni", "VT_PCODE": "MMR017015089", "VILLAGE": "Ku Lar Su", "VLG_PCODE": 155749.0, "VLG_MMR": "ကုလားစု", "ALTVLG_ENG": null, "ALTVLG_MMR": null, "Longitude": 95.15023387, "Latitude": 16.68976741, "PCODE_V": 9.6 }, "geometry": { "type": "Point", "coordinates": [ 95.15023387, 16.68976741 ] } },
{ "type": "Feature", "properties": { "ST": "Ayeyarwady", "ST_PCODE": "MMR017", "DT": "Myaungmya", "DT_PCODE": "MMR017D003", "TS": "Einme", "TS_PCODE": "MMR017015", "VT": "Kyon Ka Ni", "VT_PCODE": "MMR017015089", "VILLAGE": "Kwin Pauk", "VLG_PCODE": 155750.0, "VLG_MMR": "ကွင်းပေါက်", "ALTVLG_ENG": null, "ALTVLG_MMR": null, "Longitude": 95.15396864, "Latitude": 16.7011863, "PCODE_V": 9.6 }, "geometry": { "type": "Point", "coordinates": [ 95.15396864, 16.7011863 ] } },
{ "type": "Feature", "properties": { "ST": "Ayeyarwady", "ST_PCODE": "MMR017", "DT": "Myaungmya", "DT_PCODE": "MMR017D003", "TS": "Einme", "TS_PCODE": "MMR017015", "VT": "Kyon Ka Ni", "VT_PCODE": "MMR017015089", "VILLAGE": "Kyaung Su", "VLG_PCODE": 155748.0, "VLG_MMR": "​ကျောင်းစု", "ALTVLG_ENG": null, "ALTVLG_MMR": null, "Longitude": 95.13878632, "Latitude": 16.70347214, "PCODE_V": 9.6 }, "geometry": { "type": "Point", "coordinates": [ 95.13878632, 16.70347214 ] } },
{ "type": "Feature", "properties": { "ST": "Ayeyarwady", "ST_PCODE": "MMR017", "DT": "Myaungmya", "DT_PCODE": "MMR017D003", "TS": "Einme", "TS_PCODE": "MMR017015", "VT": "Kyon Ka Ni", "VT_PCODE": "MMR017015089", "VILLAGE": "Kyon Ka Ni", "VLG_PCODE": 155747.0, "VLG_MMR": "ကျုံကနိ", "ALTVLG_ENG": null, "ALTVLG_MMR": null, "Longitude": 95.14150601, "Latitude": 16.69044232, "PCODE_V": 9.6 }, "geometry": { "type": "Point", "coordinates": [ 95.14150601, 16.69044232 ] } },
{ "type": "Feature", "properties": { "ST": "Ayeyarwady", "ST_PCODE": "MMR017", "DT": "Myaungmya", "DT_PCODE": "MMR017D003", "TS": "Einme", "TS_PCODE": "MMR017015", "VT": "Kyon Ka Ni", "VT_PCODE": "MMR017015089", "VILLAGE": "Ohn Pin Su", "VLG_PCODE": 155751.0, "VLG_MMR": "အုန်းပင်စု", "ALTVLG_ENG": null, "ALTVLG_MMR": null, "Longitude": 95.15333557, "Latitude": 16.70456505, "PCODE_V": 9.6 }, "geometry": { "type": "Point", "coordinates": [ 95.15333557, 16.70456505 ] } },
{ "type": "Feature", "properties": { "ST": "Ayeyarwady", "ST_PCODE": "MMR017", "DT": "Myaungmya", "DT_PCODE": "MMR017D003", "TS": "Einme", "TS_PCODE": "MMR017015", "VT": "Kyon Kha Yi", "VT_PCODE": "MMR017015015", "VILLAGE": "Kyon Kha Yi", "VLG_PCODE": 155768.0, "VLG_MMR": "ကျုံခရီ", "ALTVLG_ENG": null, "ALTVLG_MMR": null, "Longitude": 95.13069916000001, "Latitude": 16.85319328, "PCODE_V": 9.6 }, "geometry": { "type": "Point", "coordinates": [ 95.13069916, 16.85319328 ] } },
{ "type": "Feature", "properties": { "ST": "Ayeyarwady", "ST_PCODE": "MMR017", "DT": "Myaungmya", "DT_PCODE": "MMR017D003", "TS": "Einme", "TS_PCODE": "MMR017015", "VT": "Kyon Kha Yi", "VT_PCODE": "MMR017015015", "VILLAGE": "Tha Pyay Chaung", "VLG_PCODE": 155769.0, "VLG_MMR": "သပြေချောင်း", "ALTVLG_ENG": null, "ALTVLG_MMR": null, "Longitude": 95.14173889, "Latitude": 16.84948921, "PCODE_V": 9.6 }, "geometry": { "type": "Point", "coordinates": [ 95.14173889, 16.84948921 ] } },
{ "type": "Feature", "properties": { "ST": "Ayeyarwady", "ST_PCODE": "MMR017", "DT": "Myaungmya", "DT_PCODE": "MMR017D003", "TS": "Einme", "TS_PCODE": "MMR017015", "VT": "Kyon Kha Yi", "VT_PCODE": "MMR017015015", "VILLAGE": "Thone Chet Htaung", "VLG_PCODE": 155770.0, "VLG_MMR": "သုံးချက်ထောင်း", "ALTVLG_ENG": null, "ALTVLG_MMR": null, "Longitude": 95.12133895, "Latitude": 16.86613946, "PCODE_V": 9.6 }, "geometry": { "type": "Point", "coordinates": [ 95.12133895, 16.86613946 ] } },
{ "type": "Feature", "properties": { "ST": "Ayeyarwady", "ST_PCODE": "MMR017", "DT": "Myaungmya", "DT_PCODE": "MMR017D003", "TS": "Einme", "TS_PCODE": "MMR017015", "VT": "Kyon La Har", "VT_PCODE": "MMR017015008", "VILLAGE": "Kyon La Har", "VLG_PCODE": 155800.0, "VLG_MMR": "ကျုံလဟာ", "ALTVLG_ENG": null, "ALTVLG_MMR": null, "Longitude": 95.09632247, "Latitude": 16.86120147, "PCODE_V": 9.6 }, "geometry": { "type": "Point", "coordinates": [ 95.09632247, 16.86120147 ] } },